     2.11           OBSERVATION DATA    M (MIXED)           RINEX VERSION / TYPE
teqc  2019Feb25     NGS Web             20220616 19:35:58UTCPGM / RUN BY / DATE
Linux 2.4.21-27.ELsmp|Opteron|gcc|Linux 64|=+               COMMENT
teqc  2019Feb25     CORS-ADM Account    20210820 19:30:14UTCCOMMENT
teqc  2019Feb25     NOAA/NOS/NGS/CORS   20210720 08:18:07UTCCOMMENT
teqc  2020Oct7      UNAVCO Archive Ops  20210720 01:33:17UTCCOMMENT
  0.0080      (antenna height)                              COMMENT
 +37.41651209 (latitude)                                    COMMENT
-122.20424721 (longitude)                                   COMMENT
0064.231      (elevation)                                   COMMENT
BIT 2 OF LLI FLAGS DATA COLLECTED UNDER A/S CONDITION       COMMENT
SLAC (COGO code)                                            COMMENT
RINEX file created by UNAVCO GPS Archive.                   COMMENT
For more information contact archive-gps@unavco.org         COMMENT
Monument ID: 18858                                          COMMENT
UNAVCO 4-char name:   SLAC                                  COMMENT
4-char name from Log or data file: SLAC                     COMMENT
Monument location: 37.416517 -122.204262 63.6962            COMMENT
Visit ID: 126772                                            COMMENT
doi:10.7283/T5KS6PW7                                        COMMENT
End of DB comments                                          COMMENT
input file: slac202107190000a.tgd                           COMMENT
 SNR is mapped to RINEX snr flag value [0-9]                COMMENT
  L1 & L2: min(max(int(snr_dBHz/6), 0), 9)                  COMMENT
teqc.e edited: all SBAS satellites excluded                 COMMENT
teqc.e edited: all QZSS satellites excluded                 COMMENT
Forced Modulo Decimation to 30 seconds                      COMMENT
SLAC                                                        MARKER NAME
49523S001                                                   MARKER NUMBER
Blume, Freddy       UNAVCO                                  OBSERVER / AGENCY
5302K56635          TRIMBLE NETR9       5.42                REC # / TYPE / VERS
0220369855          TRM59800.80     NONE                    ANT # / TYPE
 -2703115.2660 -4291768.3440  3854247.9550                  APPROX POSITION XYZ
        0.0000        0.0000        0.0000                  ANTENNA: DELTA H/E/N
     1     1                                                WAVELENGTH FACT L1/2
    20    L1    L2    C1    P2    P1    S1    S2    C2    L5# / TYPES OF OBSERV
          C5    S5    L6    C6    S6    L7    C7    S7    L8# / TYPES OF OBSERV
          C8    S8                                          # / TYPES OF OBSERV
    30.0000                                                 INTERVAL
teqc.w windowed: start @ 2021 Jul 19 00:00:00.000           COMMENT
teqc.w windowed:  end  @ 2021 Jul 20 00:00:00.000           COMMENT
teqc.w edited: all GLONASS satellites excluded              COMMENT
teqc.w edited: all SBAS satellites excluded                 COMMENT
teqc.w edited: all Galileo satellites excluded              COMMENT
teqc.w edited: all Beidou satellites excluded               COMMENT
teqc.w edited: all QZSS satellites excluded                 COMMENT
  2021     7    19     0     0    0.0000000     GPS         TIME OF FIRST OBS
    18                                                      LEAP SECONDS
                                                            END OF HEADER
 21  7 19  0  0  0.0000000  0  7G23G18G08G10G32G27G24
 115196080.986 7  89763211.767 7  21921072.766    21921080.980
        44.200          46.900    21921080.563    86023102.496 8  21921084.965
        51.400

 119268603.452 6  92936692.633 7  22696073.313    22696081.863
        41.600          44.900    22696081.723    89064367.273 7  22696084.547
        47.300

 118165523.008 7  92077045.539 7  22486154.266    22486164.848
        43.600          44.100    22486164.996    88240496.377 8  22486164.039
        48.500

 109084690.035 8  85001092.752 8  20758115.742    20758125.250
        51.100          50.500    20758124.477    81459390.247 8  20758123.133
        53.900

 109937110.635 8  85665384.453 8  20920338.891    20920348.281
        51.200          49.700    20920348.027    82096018.116 8  20920347.020
        53.400

 112594048.280 7  87735648.972 8  21425936.852    21425945.797
        47.600          48.800    21425945.773    84079992.074 8  21425945.379
        53.400

 123985020.321 6  96611765.619 6  23593575.398    23593586.281
        37.300          40.300    23593585.008    92586274.604 7  23593586.855
        46.900

 21  7 19  0  0 30.0000000  0  7G23G18G08G10G32G27G24
 115258345.025 7  89811729.195 7  21932922.016    21932929.637
        43.600          46.600    21932928.930    86069598.357 8  21932933.230
        51.300

 119349195.628 6  92999491.692 7  22711409.227    22711418.434
        40.600          44.400    22711418.129    89124549.683 7  22711421.031
        46.700

 118129825.498 7  92049229.300 7  22479361.758    22479371.746
        43.500          44.700    22479372.117    88213839.147 8  22479370.520
        48.300

 109099113.271 8  85012331.640 8  20760860.297    20760869.914
        50.800          50.500    20760869.039    81470160.843 8  20760867.652
        53.800

 109881917.468 8  85622376.804 8  20909835.398    20909845.633
        50.500          50.200    20909845.734    82054802.474 8  20909844.160
        53.400

 112620884.052 7  87756559.935 8  21431042.883    21431052.301
        47.500          48.500    21431052.164    84100031.761 8  21431052.012
        53.400

 123992088.195 6  96617273.025 6  23594920.859    23594931.797
        38.100          40.900    23594930.820    92591552.536 7  23594931.820
        46.800

 21  7 19  0  1  0.0000000  0  7G23G18G08G10G32G27G24
 115320732.369 7  89860342.681 7  21944793.859    21944801.695
        44.000          47.300    21944801.457    86116186.283 8  21944804.688
        50.900

 119430048.143 6  93062493.620 7  22726794.820    22726803.766
        41.100          44.000    22726803.242    89184926.499 7  22726807.309
        47.000

 118094673.376 7  92021838.042 7  22472672.273    22472682.859
        44.700          44.900    22472682.754    88187589.171 8  22472681.699
        48.400

 109113754.936 8  85023740.716 8  20763646.914    20763656.164
        50.800          50.500    20763655.512    81481094.543 8  20763653.934
        53.800

 109827193.664 8  85579734.909 8  20899421.586    20899431.828
        50.200          50.000    20899431.770    82013937.316 8  20899430.688
        53.500

 112648296.338 7  87777920.157 8  21436258.773    21436268.895
        47.300          48.400    21436268.820    84120501.977 8  21436268.520
        53.500

 123999720.639 6  96623220.411 6  23596375.305    23596384.152
        38.400          41.400    23596383.234    92597252.094 7  23596384.594
        47.000

 21  7 19  0  1 30.0000000  0  7G23G18G08G10G32G27G24
 115383243.150 7  89909052.382 7  21956689.117    21956697.184
        44.300          47.400    21956697.004    86162866.417 8  21956700.301
        51.000

 119511161.149 6  93125698.500 7  22742230.047    22742239.137
        41.700          44.000    22742238.945    89245497.840 7  22742242.809
        47.000

 118060068.633 7  91994873.299 7  22466087.148    22466097.750
        44.000          44.600    22466097.445    88161747.954 8  22466096.863
        48.700

 109128615.209 8  85035320.149 8  20766474.484    20766484.188
        52.600          50.400    20766483.414    81492191.492 8  20766481.797
        53.800

 109772941.307 8  85537460.358 8  20889098.063    20889107.801
        51.700          50.300    20889107.828    81973424.210 8  20889106.547
        53.400

 112676284.824 7  87799729.357 8  21441584.758    21441595.184
        47.600          49.000    21441594.660    84141402.446 8  21441594.613
        53.800

 124007918.962 6  96629608.692 6  23597933.039    23597944.195
        37.200          41.700    23597943.609    92603374.213 7  23597945.348
        47.400

 21  7 19  0  2  0.0000000  0  7G23G18G08G10G32G27G24
 115445877.406 7  89957858.260 7  21968608.203    21968616.063
        44.100          47.000    21968615.254    86209638.717 8  21968619.828
        51.400

 119592534.614 6  93189106.298 7  22757714.961    22757723.711
        40.300          43.700    22757723.188    89306263.660 7  22757728.293
        46.600

 118026012.320 7  91968335.901 7  22459607.133    22459617.043
        44.000          44.700    22459617.047    88136316.290 8  22459616.172
        48.800

 109143694.261 8  85047070.049 8  20769343.641    20769353.613
        51.900          50.400    20769353.027    81503451.809 8  20769351.480
        53.800

 109719162.260 8  85495554.615 8  20878864.609    20878874.039
        51.700          50.700    20878874.094    81933264.544 8  20878872.832
        53.500

 112704848.944 8  87821987.102 8  21447020.844    21447030.871
        48.200          48.900    21447030.469    84162732.775 8  21447030.395
        53.500

 124016684.097 5  96636438.700 7  23599600.836    23599612.609
        35.400          42.600    23599612.184    92609919.633 7  23599612.211
        46.000

 21  7 19  0  2 30.0000000  0  7G23G18G08G10G32G27G24
 115508633.327 7  90006758.963 7  21980549.992    21980558.348
        45.000          46.800    21980557.438    86256501.883 8  21980561.527
        51.300

 119674166.738 6  93252715.717 7  22773250.055    22773257.664
        40.700          43.600    22773257.957    89367222.660 7  22773261.473
        46.000

 117992505.163 7  91942226.435 7  22453230.391    22453240.766
        44.500          45.200    22453240.629    88111294.697 8  22453239.801
        49.200

 109158990.369 8  85058989.097 8  20772254.250    20772264.473
        52.500          50.300    20772263.746    81514874.230 8  20772262.348
        53.800

 109665856.567 8  85454017.733 8  20868720.289    20868730.254
        52.200          50.300    20868730.141    81893458.367 8  20868729.023
        53.400

 112733986.333 8  87844691.553 8  21452565.523    21452574.984
        48.700          48.400    21452574.922    84184491.197 8  21452575.113
        53.600

 124026015.523 5  96643709.950 6  23601374.719    23601388.363
        35.900          41.600    23601387.664    92616887.891 7  23601387.418
        45.800

 21  7 19  0  3  0.0000000  0  7G23G18G08G10G32G27G24
 115571509.545 7  90055753.393 7  21992515.164    21992523.082
        44.100          47.600    21992522.574    86303454.884 8  21992526.625
        51.900

 119756056.112 6  93316525.519 7  22788832.039    22788841.082
        40.800          44.100    22788841.063    89428373.742 7  22788844.598
        46.600

 117959547.525 7  91916545.128 7  22446958.703    22446969.234
        43.800          44.900    22446969.441    88086683.486 8  22446968.160
        49.200

 109174502.272 8  85071076.285 8  20775206.219    20775216.313
        52.800          50.400    20775215.527    81526457.776 8  20775213.809
        53.800

 109613024.718 8  85412850.069 8  20858666.891    20858676.699
        52.100          50.200    20858676.527    81854006.032 8  20858675.184
        53.600

 112763695.035 8  87867841.163 8  21458219.188    21458228.652
        48.500          48.300    21458228.328    84206676.251 8  21458228.313
        53.700

 124035912.775 6  96651422.071 6  23603259.883    23603271.402
        37.600          41.700    23603270.289    92624278.678 7  23603271.004
        45.800

 21  7 19  0  3 30.0000000  0  7G23G18G08G10G32G27G24
 115634505.472 7  90104841.119 7  22004502.211    22004511.000
        43.800          47.000    22004510.102    86350497.279 8  22004514.328
        51.100

 119838202.026 6  93380535.309 7  22804461.727    22804473.645
        39.400          44.100    22804473.191    89489716.400 7  22804476.137
        45.700

 117927140.334 7  91891292.786 7  22440791.422    22440802.742
        44.600          45.500    22440803.160    88062483.307 8  22440801.301
        49.300

 109190229.456 8  85083331.214 8  20778199.039    20778208.883
        53.000          50.400    20778208.438    81538202.091 8  20778206.477
        53.800

 109560667.886 8  85372052.563 8  20848704.125    20848713.492
        52.700          50.500    20848713.629    81814908.427 8  20848712.324
        53.400

 112793973.866 8  87891435.021 8  21463981.359    21463990.813
        48.700          49.000    21463990.668    84229287.026 8  21463990.273
        53.400

 124046376.213 6  96659575.417 7  23605251.289    23605262.172
        36.300          42.600    23605262.168    92632092.284 7  23605261.953
        45.500

 21  7 19  0  4  0.0000000  0  7G23G18G08G10G32G27G24
 115697620.787 7  90154021.875 7  22016513.648    22016521.668
        44.500          47.300    22016521.367    86397628.830 8  22016524.793
        51.500

 119920604.210 6  93444744.736 7  22820141.961    22820153.840
        38.900          43.200    22820153.203    89551250.419 7  22820156.852
        45.300

 117895285.277 7  91866470.670 7  22434729.648    22434741.016
        44.900          45.600    22434741.242    88038695.446 8  22434739.453
        49.000

 109206171.676 8  85095753.727 8  20781233.039    20781242.750
        51.900          50.500    20781241.914    81550107.000 8  20781240.375
        53.700

 109508787.554 8  85331626.342 8  20838831.719    20838840.996
        53.100          50.200    20838840.699    81776166.638 8  20838839.754
        53.400

 112824821.794 7  87915472.358 8  21469850.281    21469860.832
        47.500          48.600    21469860.734    84252322.799 8  21469860.406
        53.500

 124057406.548 6  96668170.458 7  23607350.148    23607362.270
        37.400          43.100    23607361.742    92640329.190 7  23607361.316
        45.900

 21  7 19  0  4 30.0000000  0  7G23G18G08G10G32G27G24
 115760855.071 7  90203295.331 7  22028547.055    22028554.918
        44.800          47.200    22028554.551    86444849.223 8  22028557.469
        50.200

 120003262.057 6  93509153.428 7  22835873.945    22835882.371
        41.700          42.600    22835883.012    89612975.432 7  22835885.676
        44.500

 117863983.173 7  91842079.426 7  22428773.734    22428784.379
        44.100          45.000    22428784.578    88015320.489 8  22428782.738
        48.100

 109222328.671 8  85108343.584 8  20784307.203    20784317.457
        52.600          50.000    20784316.859    81562172.269 8  20784315.043
        53.800

 109457385.115 8  85291572.512 8  20829049.813    20829059.453
        52.800          49.700    20829059.488    81737781.724 8  20829058.273
        53.200

 112856237.831 8  87939952.374 8  21475829.406    21475839.277
        48.300          48.100    21475838.938    84275782.801 8  21475838.473
        53.100

 124069004.276 6  96677207.669 7  23609556.938    23609568.648
        36.700          42.600    23609568.938    92648989.840 7  23609569.492
        47.100

 21  7 19  0  5  0.0000000  0  7G23G18G08G10G32G27G24
 115824207.646 7  90252660.973 7  22040601.633    22040610.262
        45.600          46.900    22040610.285    86492157.951 8  22040612.484
        50.000

 120086174.802 6  93573760.698 7  22851652.102    22851660.707
        41.500          42.000    22851660.359    89674890.714 7  22851663.484
        43.900

 117833234.854 7  91818119.676 7  22422923.234    22422932.945
        44.500          44.900    22422932.391    87992359.065 8  22422931.258
        48.400

 109238699.791 8  85121100.293 8  20787422.789    20787432.961
        53.200          50.500    20787432.113    81574397.456 8  20787430.223
        53.700

 109406461.520 8  85251891.811 8  20819359.633    20819368.887
        53.200          49.900    20819368.816    81699754.380 8  20819367.949
        53.400

 112888220.476 8  87964873.885 8  21481915.641    21481925.160
        48.000          48.400    21481924.820    84299665.916 8  21481925.027
        53.200

 124081169.502 6  96686687.048 7  23611873.297    23611883.262
        38.400          42.800    23611883.992    92658074.275 7  23611883.520
        46.000

 21  7 19  0  5 30.0000000  0  7G23G18G08G10G32G27G24
 115887677.393 7  90302117.885 7  22052679.984    22052687.645
        45.700          46.600    22052687.105    86539554.167 8  22052690.965
        50.300

 120169341.170 7  93638565.609 7  22867478.727    22867486.336
        42.100          42.500    22867486.664    89736995.426 7  22867490.145
        44.200

 117803041.580 7  91794592.453 7  22417176.563    22417187.117
        43.500          44.500    22417186.961    87969812.151 7  22417185.715
        47.700

 109255283.932 8  85134023.014 8  20790579.430    20790588.563
        53.200          50.500    20790588.043    81586781.718 8  20790586.156
        53.700

 109356017.365 9  85212584.697 8  20809760.516    20809769.875
        54.100          50.400    20809769.828    81662085.062 8  20809768.574
        53.200

 112920767.837 7  87990235.450 8  21488108.859    21488118.750
        47.800          48.100    21488118.492    84323970.737 8  21488118.500
        53.200

 124093901.987 6  96696608.474 7  23614296.969    23614306.410
        38.100          42.400    23614305.711    92667582.296 7  23614306.023
        46.400

 21  7 19  0  6  0.0000000  0  7G23G18G08G10G32G27G24
 115951264.150 7  90351665.982 7  22064780.258    22064787.797
        45.200          46.500    22064787.375    86587037.754 8  22064791.234
        50.200

 120252760.942 6  93703567.966 6  22883352.828    22883361.258
        41.400          41.800    22883361.184    89799289.355 7  22883364.883
        44.100

 117773404.392 7  91771498.535 7  22411537.047    22411547.227
        43.800          45.400    22411547.609    87947680.475 8  22411546.121
        48.500

 109272081.116 8  85147111.708 8  20793774.922    20793784.898
        52.600          49.900    20793784.418    81599325.054 8  20793782.734
        53.700

 109306054.222 9  85173652.403 8  20800252.664    20800262.305
        54.400          49.900    20800262.031    81624774.950 8  20800260.758
        53.200

 112953879.007 8  88016036.348 8  21494409.734    21494419.816
        48.000          48.000    21494419.602    84348696.587 8  21494419.164
        53.000

 124107202.455 5  96706972.431 6  23616825.445    23616837.777
        35.500          41.300    23616836.859    92677514.411 7  23616837.805
        47.200

 21  7 19  0  6 30.0000000  0  7G23G18G08G10G32G27G24
 116014967.177 7  90401304.676 7  22076902.875    22076910.480
        45.900          46.400    22076910.172    86634608.170 8  22076913.805
        50.800

 120336433.159 6  93768767.064 6  22899273.875    22899284.004
        40.000          40.300    22899283.215    89861771.820 7  22899287.660
        44.100

 117744324.076 7  91748838.543 7  22406004.266    22406013.840
        43.900          45.800    22406013.793    87925964.654 8  22406012.914
        49.000

 109289090.623 8  85160365.874 8  20797011.883    20797021.590
        52.800          50.200    20797020.809    81612026.963 8  20797019.484
        53.800

 109256573.004 8  85135095.621 8  20790836.555    20790846.293
        53.400          50.300    20790845.875    81587824.719 8  20790845.086
        53.400

 112987552.463 8  88042275.387 8  21500817.906    21500827.621
        49.100          48.100    21500827.539    84373842.339 8  21500827.027
        53.100

 124121070.898 5  96717779.009 6  23619463.203    23619476.008
        35.600          41.900    23619475.918    92687870.732 7  23619477.316
        47.600

 21  7 19  0  7  0.0000000  0  7G23G18G08G10G32G27G24
 116078785.488 7  90451033.208 7  22089046.422    22089054.918
        44.300          45.700    22089054.066    86682264.685 8  22089058.188
        50.100

 120420356.751 6  93834162.044 6  22915244.133    22915253.457
        40.400          41.800    22915253.309    89924441.981 7  22915257.453
        45.400

 117715801.690 7  91726613.311 7  22400576.055    22400586.383
        43.300          45.900    22400586.840    87904665.458 8  22400584.832
        49.300

 109306311.608 8  85173784.810 8  20800288.633    20800298.676
        51.400          50.400    20800297.859    81624886.771 8  20800296.371
        53.400

 109207574.359 8  85096914.878 8  20781512.078    20781522.176
        52.400          50.500    20781522.227    81551234.849 8  20781520.813
        53.200

 113021786.432 8  88068951.172 8  21507332.242    21507342.254
        48.500          48.800    21507342.105    84399406.634 8  21507341.531
        52.800

 124135507.200 5  96729028.015 6  23622211.203    23622222.555
        35.200          40.400    23622222.328    92698651.049 7  23622224.168
        46.500

 21  7 19  0  7 30.0000000  0  7G23G18G08G10G32G27G24
 116142718.615 7  90500851.217 7  22101211.523    22101221.008
        43.400          46.100    22101220.340    86730006.930 8  22101223.879
        50.300

 120504531.029 6  93899752.315 7  22931262.742    22931272.063
        41.300          42.400    22931271.449    89987299.313 7  22931275.574
        46.200

 117687837.271 7  91704822.827 7  22395254.125    22395264.844
        42.900          46.500    22395264.563    87883782.932 8  22395263.578
        49.600

 109323743.584 8  85187368.166 8  20803606.305    20803615.816
        53.300          50.200    20803615.156    81637904.154 8  20803613.340
        53.200

 109159059.397 8  85059111.039 8  20772279.984    20772289.762
        53.900          50.000    20772289.781    81515006.163 8  20772288.738
        53.100

 113056579.469 8  88096062.596 8  21513953.453    21513963.383
        48.700          48.600    21513963.098    84425388.418 8  21513962.520
        52.700

 124150511.412 6  96740719.643 6  23625070.016    23625078.125
        38.800          40.400    23625077.895    92709855.504 7  23625078.875
        46.200

 21  7 19  0  8  0.0000000  0  7G23G18G08G10G32G27G24
 116206765.511 7  90550757.880 7  22113400.195    22113408.633
        44.600          46.100    22113408.340    86777834.149 8  22113411.902
        50.400

 120588954.785 6  93965537.003 7  22947327.664    22947337.551
        40.900          43.300    22947337.766    90050342.961 7  22947340.840
        46.800

 117660432.184 7  91683468.207 7  22390039.109    22390049.801
        42.800          46.800    22390049.742    87863318.081 8  22390048.445
        49.600

 109341385.644 8  85201115.216 8  20806963.578    20806973.000
        52.100          49.800    20806972.391    81651078.401 8  20806970.574
        53.400

 109111028.686 8  85021684.526 8  20763140.234    20763149.668
        53.900          49.500    20763149.477    81479139.100 8  20763148.809
        53.400

 113091929.699 8  88123608.219 8  21520680.445    21520690.145
        49.100          48.400    21520689.965    84451786.293 8  21520689.641
        53.100

 124166083.391 6  96752853.640 6  23628032.781    23628041.820
        37.900          41.300    23628041.348    92721483.916 7  23628042.000
        46.500

 21  7 19  0  8 30.0000000  0  7G23G18G08G10G32G27G24
 116270925.969 7  90600753.033 7  22125609.641    22125617.914
        44.500          46.800    22125617.871    86825746.153 8  22125621.082
        50.300

 120673627.525 6  94031515.702 7  22963439.828    22963450.219
        40.200          43.000    22963449.742    90113572.532 7  22963453.664
        46.900

 117633587.133 7  91662549.986 7  22384931.555    22384941.328
        42.700          46.600    22384941.465    87843271.461 8  22384939.934
        49.900

 109359237.531 8  85215025.775 8  20810360.680    20810370.012
        52.300          49.900    20810369.348    81664409.351 8  20810367.984
        53.800

 109063483.519 8  84984636.367 8  20754092.445    20754102.379
        53.800          49.700    20754102.125    81443634.623 8  20754101.137
        53.400

 113127835.930 7  88151587.064 8  21527512.164    21527523.227
        47.800          48.500    21527522.477    84478599.357 8  21527521.984
        52.900

 124182223.354 6  96765430.270 6  23631102.648    23631113.109
        36.900          40.900    23631112.387    92733536.530 7  23631113.941
        46.900

 21  7 19  0  9  0.0000000  0  7G23G18G08G10G32G27G24
 116335199.763 7  90650836.475 7  22137840.438    22137848.660
        44.700          45.400    22137848.066    86873742.779 8  22137851.930
        49.900

 120758548.841 6  94097688.095 7  22979600.945    22979610.609
        40.800          43.700    22979610.281    90176987.729 7  22979613.762
        45.800

 117607303.243 7  91642069.039 7  22379927.930    22379939.500
        42.900          46.700    22379939.738    87823643.879 8  22379938.059
        49.200

 109377299.213 8  85229099.818 8  20813797.547    20813807.098
        53.000          49.900    20813806.484    81677896.971 8  20813804.898
        53.400

 109016425.273 8  84947967.631 8  20745137.672    20745147.512
        53.700          50.100    20745147.844    81408493.748 8  20745146.078
        53.400

 113164297.075 8  88179998.337 8  21534451.438    21534461.160
        48.600          48.000    21534460.992    84505826.811 8  21534460.629
        52.700

 124198931.982 5  96778449.903 7  23634280.508    23634292.938
        35.600          42.400    23634292.238    92746013.695 7  23634293.418
        45.900

 21  7 19  0  9 30.0000000  0  8G23G18G08G10G32G27G24G21
 116399585.764 7  90701007.335 7  22150092.805    22150100.930
        45.000          45.400    22150100.176    86921823.193 8  22150104.438
        50.500

 120843717.445 6  94164053.190 7  22995807.383    22995817.281
        39.800          43.300    22995817.852    90240587.581 7  22995820.934
        46.100

 117581581.259 7  91622025.950 7  22375033.805    22375044.809
        42.600          47.200    22375044.898    87804435.902 8  22375043.355
        49.200

 109395569.609 8  85243336.469 8  20817274.992    20817283.941
        53.200          50.300    20817283.125    81691540.430 8  20817281.535
        53.300

 108969854.319 8  84911678.579 8  20736275.438    20736285.160
        52.800          49.800    20736285.000    81373716.763 8  20736284.121
        53.500

 113201311.003 8  88208840.317 8  21541495.156    21541504.703
        48.800          49.400    21541504.137    84533467.046 8  21541503.918
        52.400

 124216208.543 6  96791912.182 6  23637568.281    23637580.535
        37.300          41.600    23637580.297    92758915.020 7  23637582.383
        47.100

 130125987.94614                  24762143.789
        28.300


 21  7 19  0 10  0.0000000  0  8G23G18G08G10G32G27G24G21
 116464083.791 7  90751265.525 7  22162367.047    22162374.441
        46.100          45.500    22162373.680    86969987.291 8  22162378.074
        50.700

 120929132.838 6  94230610.557 6  23012061.477    23012070.504
        40.500          41.900    23012070.527    90304371.741 7  23012074.629
        46.500

 117556422.126 7  91602421.431 7  22370247.227    22370257.266
        42.700          47.200    22370257.094    87785648.221 8  22370256.172
        50.100

 109414048.548 8  85257735.646 8  20820790.547    20820800.453
        53.000          50.200    20820799.688    81705339.643 8  20820798.418
        53.800

 108923771.945 8  84875770.264 8  20727506.133    20727515.945
        53.000          50.200    20727515.566    81339304.619 9  20727514.813
        54.000

 113238876.469 7  88238112.099 8  21548642.672    21548653.344
        47.400          48.700    21548652.906    84561519.163 8  21548652.168
        52.800

 124234053.495 6  96805817.308 6  23640964.773    23640975.711
        38.800          41.400    23640975.469    92772240.809 7  23640977.023
        46.800

 130041804.74614                  24746123.727
        27.600


 21  7 19  0 10 30.0000000  0  7G23G18G08G10G32G27G24
 116528692.705 7  90801610.105 7  22174662.078    22174669.336
        46.500          45.100    22174668.711    87018234.191 8  22174672.625
        50.200

 121014793.600 6  94297359.156 6  23028362.938    23028371.602
        39.800          41.100    23028371.207    90368339.137 7  23028375.309
        46.400

 117531826.003 7  91583255.619 7  22365565.266    22365576.598
        42.900          47.000    22365577.117    87767280.997 8  22365575.953
        50.400

 109432734.983 8  85272296.509 8  20824346.813    20824356.109
        52.100          50.800    20824355.688    81719293.793 8  20824353.957
        53.700

 108878178.471 8  84840242.907 8  20718830.320    20718839.637
        53.000          49.900    20718839.543    81305257.561 9  20718838.629
        54.000

 113276991.346 8  88267811.979 8  21555896.648    21555906.254
        49.100          48.900    21555906.285    84589981.541 8  21555905.473
        52.700

 124252466.172 6  96820164.835 6  23644467.539    23644480.164
        37.800          41.300    23644479.578    92785990.514 7  23644480.594
        46.500

 21  7 19  0 11  0.0000000  0  7G23G18G08G10G32G27G24
 116593412.193 7  90852040.857 7  22186977.695    22186985.098
        46.000          45.100    22186984.723    87066563.630 8  22186988.590
        50.000

 121100699.203 6  94364298.527 6  23044711.727    23044717.570
        40.200          39.700    23044717.617    90432489.319 7  23044722.426
        46.000

 117507793.759 7  91564529.194 7  22360993.148    22361003.578
        42.900          46.800    22361003.824    87749334.843 8  22361002.695
        50.200

 109451628.644 8  85287018.840 8  20827942.227    20827951.391
        51.100          50.400    20827950.691    81733402.691 8  20827949.211
        53.400

 108833075.046 8  84805097.392 8  20710247.102    20710256.828
        50.700          50.400    20710256.816    81271576.448 9  20710255.875
        54.000

 113315654.230 8  88297938.879 8  21563253.578    21563263.707
        48.900          48.900    21563263.527    84618853.144 8  21563262.902
        52.700

 124271446.887 6  96834954.971 6  23648080.758    23648091.910
        38.700          41.200    23648091.449    92800164.409 7  23648093.141
        46.200

 21  7 19  0 11 30.0000000  0  7G23G18G08G10G32G27G24
 116658241.645 7  90902557.303 7  22199313.422    22199321.883
        45.400          46.000    22199321.586    87114975.214 8  22199324.996
        49.500

 121186848.618 6  94431427.876 6  23061104.336    23061111.102
        39.700          39.000    23061110.996    90496821.619 7  23061116.012
        45.100

 117484326.079 7  91546242.685 7  22356527.500    22356537.746
        43.200          46.500    22356537.902    87731810.276 8  22356536.668
        50.300

 109470728.967 8  85301902.199 8  20831576.453    20831586.383
        51.900          50.500    20831585.930    81747665.918 8  20831584.078
        53.400

 108788462.428 8  84770334.322 8  20701757.859    20701767.590
        52.500          50.500    20701767.781    81238261.842 9  20701766.141
        54.100

 113354863.449 8  88328491.483 8  21570715.086    21570724.969
        48.700          48.700    21570724.402    84648132.729 8  21570724.441
        52.800

 124290995.361 6  96850187.544 6  23651800.648    23651812.109
        38.300          41.600    23651811.074    92814762.287 7  23651812.465
        45.700

 21  7 19  0 12  0.0000000  0  8G23G18G08G10G32G27G24G21
 116723180.239 7  90953158.761 7  22211671.273    22211679.219
        45.900          45.700    22211678.895    87163468.288 8  22211682.539
        49.500

 121273240.852 6  94498746.385 6  23077543.641    23077551.578
        39.600          39.200    23077550.758    90561335.210 7  23077555.590
        44.700

 117461423.716 7  91528396.679 7  22352168.336    22352179.625
        43.000          46.600    22352179.313    87714707.853 8  22352178.469
        50.300

 109490035.150 8  85316945.984 8  20835250.398    20835260.277
        50.800          50.300    20835259.836    81762082.869 8  20835257.863
        53.500

 108744341.153 8  84735954.124 8  20693361.563    20693371.652
        50.900          51.100    20693371.277    81205314.158 9  20693370.137
        54.400

 113394616.999 8  88359468.233 8  21578279.570    21578289.520
        48.800          48.800    21578289.414    84677818.775 8  21578289.574
        52.900

 124311111.198 6  96865862.193 7  23655627.586    23655640.172
        37.500          42.100    23655639.676    92829783.849 7  23655640.035
        45.200

 129705078.91915                  24682052.383
        32.000


 21  7 19  0 12 30.0000000  0  8G23G18G08G10G32G27G24G21
 116788227.260 7  91003844.736 7  22224048.969    22224056.949
        45.500          45.500    22224056.945    87212042.327 8  22224060.906
        49.500

 121359874.709 6  94566253.269 6  23094028.313    23094037.672
        38.500          38.300    23094036.973    90626029.310 7  23094041.957
        44.500

 117439087.032 7  91510991.465 7  22347919.141    22347929.105
        44.500          46.800    22347929.125    87698027.858 8  22347928.090
        50.800

 109509546.598 8  85332149.705 8  20838962.953    20838973.008
        50.900          50.200    20838972.563    81776653.103 8  20838970.672
        53.500

 108700711.954 8  84701957.371 8  20685059.273    20685069.199
        51.700          51.200    20685069.082    81172733.925 9  20685067.777
        54.300

 113434913.013 8  88390867.721 8  21585947.164    21585957.707
        48.800          48.400    21585957.445    84707909.929 8  21585957.199
        52.600

 124331794.260 6  96881978.902 6  23659565.977    23659576.559
        37.200          41.600    23659575.914    92845229.006 7  23659576.219
        45.200

 129620914.50915                  24666035.484
        32.300


 21  7 19  0 13  0.0000000  0  8G23G18G08G10G32G27G24G21
 116853382.114 7  91054614.741 7  22236447.750    22236455.723
        46.600          44.800    22236455.496    87260696.908 8  22236458.445
        49.200

 121446749.466 6  94633947.813 6  23110560.258    23110569.461
        37.500          38.700    23110569.734    90690903.233 7  23110574.742
        44.700

 117417316.429 7  91494027.352 7  22343776.031    22343786.441
        43.600          47.200    22343786.445    87681770.577 8  22343785.320
        50.300

 109529262.756 8  85347512.954 8  20842715.180    20842724.945
        50.900          50.300    20842724.289    81791376.196 8  20842722.773
        53.800

 108657575.543 8  84668344.581 8  20676850.539    20676860.453
        51.100          51.500    20676860.457    81140521.672 9  20676859.059
        54.300

 113475749.804 8  88422688.562 8  21593719.508    21593728.813
        49.100          49.100    21593728.539    84738404.906 8  21593728.594
        52.800

 124353044.219 5  96898537.273 6  23663606.492    23663620.047
        35.800          41.400    23663619.863    92861097.415 7  23663620.664
        45.300

 129536757.16515                  24650022.141
        32.500


 21  7 19  0 13 30.0000000  0  8G23G18G08G10G32G27G24G21
 116918645.281 7  91105469.127 7  22248866.766    22248875.266
        45.600          45.900    22248874.953    87309432.373 8  22248878.262
        49.700

 121533865.107 6  94701830.075 6  23127138.266    23127148.063
        37.700          38.900    23127148.180    90755957.038 7  23127151.953
        44.400

 117396113.291 7  91477505.438 7  22339741.188    22339751.625
        44.600          47.200    22339751.578    87665937.081 8  22339750.434
        50.300

 109549184.088 8  85363036.047 8  20846505.914    20846516.027
        51.100          51.100    20846515.484    81806252.513 8  20846513.801
        53.900

 108614933.651 8  84635117.143 8  20668736.328    20668745.688
        52.300          50.500    20668745.680    81108678.719 9  20668744.633
        54.500

 113517126.568 8  88454930.163 8  21601591.867    21601602.578
        48.700          48.800    21601602.555    84769303.097 8  21601602.059
        52.800

 124374861.790 5  96915537.966 6  23667759.039    23667770.855
        35.500          41.200    23667770.703    92877389.768 7  23667771.727
        45.100

 129452609.230 5                  24634006.672
        30.100


 21  7 19  0 14  0.0000000  0  8G23G18G08G10G32G27G24G21
 116984015.440 7  91156406.899 7  22261305.688    22261314.535
        45.500          45.500    22261314.383    87358247.715 8  22261317.770
        48.800

 121621220.034 6  94769898.804 6  23143760.852    23143771.844
        36.300          38.500    23143771.715    90821189.568 7  23143775.520
        44.500

 117375477.799 7  91461425.833 7  22335814.086    22335824.883
        45.000          46.700    22335824.750    87650527.443 8  22335823.324
        50.100

 109569309.418 8  85378718.136 8  20850336.313    20850345.539
        51.000          51.100    20850344.789    81821281.168 8  20850343.492
        53.700

 108572786.350 8  84602275.108 8  20660715.805    20660725.426
        52.700          51.100    20660725.160    81077205.094 9  20660724.215
        54.300

 113559040.788 8  88487590.569 8  21609568.344    21609578.766
        48.700          48.700    21609578.660    84800602.646 8  21609577.770
        52.500

 124397246.108 6  96932980.244 6  23672020.500    23672031.355
        38.900          41.300    23672031.508    92894105.280 7  23672030.320
        44.300

 129368471.526 5                  24618000.125
        33.400


 21  7 19  0 14 30.0000000  0  8G23G18G08G10G32G27G24G21
 117049491.815 7  91207427.425 7  22273766.148    22273773.957
        45.600          45.200    22273773.750    87407142.384 8  22273777.742
        49.300

 121708813.060 6  94838153.072 6  23160430.445    23160439.938
        36.500          37.700    23160439.020    90886599.870 7  23160444.352
        44.500

 117355410.348 7  91445788.833 7  22331995.992    22332005.738
        44.500          46.900    22332006.211    87635541.983 8  22332004.910
        50.600

 109589637.964 8  85394558.553 8  20854204.492    20854213.996
        50.700          50.700    20854213.555    81836461.569 8  20854211.652
        53.700

 108531134.049 8  84569818.787 8  20652790.016    20652799.234
        52.200          51.000    20652798.953    81046101.128 9  20652798.180
        54.400

 113601490.416 8  88520668.176 8  21617646.305    21617656.828
        48.500          48.000    21617656.512    84832302.000 8  21617655.781
        52.400

 124420196.603 6  96950863.753 6  23676387.438    23676398.391
        36.900          41.700    23676398.773    92911243.615 7  23676399.012
        44.900

 129284344.785 5                  24601986.477
        31.200


 21  7 19  0 15  0.0000000  0  8G23G18G08G10G32G27G24G21
 117115073.850 7  91258530.283 7  22286245.648    22286253.828
        44.700          45.100    22286253.277    87456115.938 8  22286256.785
        49.000

 121796643.206 6  94906592.059 6  23177145.383    23177154.063
        36.900          38.900    23177154.352    90952187.218 7  23177158.398
        43.600

 117335911.318 7  91430594.774 7  22328285.055    22328295.355
        45.400          47.100    22328295.344    87620981.017 8  22328294.402
        51.000

 109610169.159 8  85410556.878 8  20858111.383    20858121.074
        51.400          50.300    20858120.301    81851793.303 8  20858118.703
        53.800

 108489977.413 8  84537748.692 8  20644957.977    20644967.727
        53.400          51.300    20644967.375    81015367.293 9  20644966.566
        54.500

 113644473.572 8  88554161.511 8  21625825.703    21625836.133
        48.500          48.300    21625835.973    84864399.781 8  21625835.422
        52.800

 124443712.966 6  96969188.201 6  23680862.141    23680873.457
        37.900          40.900    23680873.133    92928804.539 7  23680874.082
        45.100

 129200230.454 5                  24585983.047
        33.500


 21  7 19  0 15 30.0000000  0  8G23G18G08G10G32G27G24G21
 117180761.068 7  91309715.115 7  22298745.891    22298753.539
        46.100          44.600    22298753.289    87505168.049 8  22298757.090
        48.200

 121884709.625 5  94975215.142 6  23193904.867    23193912.375
        35.700          37.500    23193910.875    91017951.028 6  23193916.012
        41.700

 117316981.041 7  91415843.896 7  22324682.656    22324693.129
        44.100          46.500    22324693.363    87606844.759 8  22324692.277
        50.900

 109630902.626 8  85426712.833 8  20862056.219    20862066.426
        51.800          49.700    20862066.039    81867276.085 8  20862064.078
        53.500

 108449317.256 8  84506065.471 8  20637220.094    20637230.242
        53.200          51.900    20637230.117    80985004.208 9  20637228.969
        54.100

 113687988.533 8  88588069.259 8  21634106.383    21634116.633
        48.800          48.800    21634116.695    84896894.702 8  21634115.863
        52.500

 124467794.967 6  96987953.399 7  23685444.297    23685456.641
        38.800          42.000    23685456.695    92946787.842 7  23685455.227
        43.900

 129116129.70715                  24569978.609
        31.200


 21  7 19  0 16  0.0000000  0  8G23G18G08G10G32G27G24G21
 117246553.126 7  91360981.610 7  22311266.484    22311274.047
        46.100          44.800    22311273.090    87554298.456 8  22311276.656
        49.000

 121973011.533 5  95044021.712 5  23210708.656    23210715.164
        34.000          35.700    23210713.871    91083890.675 6  23210719.637
        40.100

 117298620.428 7  91401536.904 7  22321188.875    22321199.285
        43.900          47.000    22321199.055    87593133.891 8  22321198.262
        50.900

 109651838.088 8  85443026.160 8  20866040.516    20866050.348
        51.600          50.800    20866049.730    81882909.703 8  20866048.070
        53.800

 108409154.349 8  84474769.706 8  20629577.266    20629587.469
        52.800          51.500    20629587.527    80955012.437 9  20629585.832
        54.100

 113732033.583 8  88622390.046 8  21642488.492    21642498.219
        48.700          48.400    21642497.684    84929785.454 8  21642497.707
        52.800

 124492442.480 6  97007159.248 6  23690134.242    23690146.145
        37.200          40.900    23690146.242    92965193.423 7  23690146.879
        44.600

 129032044.15715                  24553976.852
        30.100


 21  7 19  0 16 30.0000000  0  8G23G18G08G10G32G27G24G21
 117312449.818 7  91412329.633 7  22323806.391    22323813.500
        46.100          45.100    22323812.844    87603506.996 8  22323816.797
        48.700

 122061548.19414  95113011.290 5  23227548.453
        27.300          34.100    23227561.750    91150005.709 6  23227565.648
        39.500

 117280830.135 7  91387674.347 7  22317802.898    22317813.723
        43.200          46.800    22317814.105    87579848.953 8  22317813.184
        51.300

 109672975.307 8  85459496.725 8  20870062.852    20870072.563
        51.800          50.200    20870072.020    81898693.981 8  20870070.422
        53.700

 108369489.650 9  84443862.169 8  20622030.555    20622039.473
        54.100          51.100    20622039.313    80925392.722 8  20622037.973
        53.700

 113776607.113 8  88657122.635 7  21650970.672    21650980.344
        48.000          47.800    21650980.102    84963070.845 8  21650979.457
        52.600

 124517655.371 6  97026805.642 6  23694932.734    23694944.293
        38.000          40.500    23694943.754    92984021.242 7  23694944.258
        43.400

 128947975.24615                  24537977.383
        31.600


 21  7 19  0 17  0.0000000  0  8G23G18G08G10G32G27G24G21
 117378450.333 7  91463758.616 7  22336364.914    22336372.777
        45.400          45.700    22336372.293    87652793.080 8  22336375.949
        48.500

 122150318.54414  95182182.981 5  23244445.531
        27.300          32.100    23244453.090    91216295.176 6  23244457.816
        39.700

 117263610.608 7  91374256.518 7  22314526.000    22314537.164
        44.500          47.000    22314537.316    87566990.189 8  22314536.285
        51.300

 109694313.531 8  85476123.921 8  20874123.289    20874133.145
        51.300          50.500    20874132.637    81914628.374 8  20874130.973
        53.700

 108330323.532 8  84413343.141 8  20614575.773    20614586.461
        52.900          50.500    20614586.422    80896145.319 8  20614585.016
        53.700

 113821706.999 8  88692265.376 8  21659552.492    21659562.664
        48.100          48.200    21659562.465    84996749.291 8  21659561.910
        52.400

 124543433.015 6  97046892.092 6  23699837.375    23699849.063
        37.400          40.900    23699848.902    93003270.739 7  23699849.125
        43.300

 128863924.036 5                  24521985.031
        32.400


 21  7 19  0 17 30.0000000  0  7G23G08G10G32G27G24G21
 117444554.147 7  91515268.041 7  22348943.578    22348951.883
        45.600          45.000    22348952.063    87702156.297 8  22348955.363
        48.600

 117246961.521 7  91361283.192 7  22311358.508    22311369.004
        45.400          47.300    22311369.422    87554557.422 8  22311367.902
        51.300

 109715852.281 8  85492907.353 8  20878222.352    20878231.785
        53.000          50.200    20878231.117    81930712.496 8  20878229.582
        53.800

 108291656.539 8  84383213.040 8  20607218.516    20607228.402
        53.700          51.000    20607228.125    80867270.642 8  20607226.988
        53.700

 113867331.214 8  88727816.682 8  21668234.328    21668244.582
        48.500          48.000    21668244.293    85030819.305 8  21668243.609
        52.400

 124569774.923 6  97067418.269 6  23704850.336    23704862.660
        37.500          41.000    23704861.688    93022941.632 7  23704862.063
        43.800

 128779892.03415                  24505993.453
        33.600


 21  7 19  0 18  0.0000000  0  7G23G08G10G32G27G24G21
 117510760.664 7  91566857.515 7  22361542.992    22361550.531
        45.500          45.500    22361550.500    87751596.191 8  22361554.086
        48.800

 117230884.119 7  91348755.338 7  22308299.281    22308309.426
        44.800          47.300    22308309.578    87542551.550 8  22308308.633
        51.200

 109737591.070 8  85509846.653 8  20882358.539    20882368.484
        52.200          49.600    20882367.770    81946945.992 8  20882366.273
        53.700

 108253489.240 8  84353472.292 8  20599955.469    20599965.313
        51.900          50.800    20599965.211    80838769.103 8  20599963.836
        53.700

 113913477.750 8  88763775.006 7  21677016.609    21677025.664
        48.800          47.900    21677025.543    85065279.346 8  21677025.211
        52.500

 124596680.642 6  97088383.734 6  23709970.477    23709981.637
        38.100          40.100    23709981.383    93043033.546 7  23709982.488
        43.600

 128695880.50615 100282514.25452  24490004.406    24490014.605
        31.200          13.900


 21  7 19  0 18 30.0000000  0  7G23G08G10G32G27G24G21
 117577069.781 7  91618526.929 7  22374161.383    22374169.234
        45.700          46.000    22374169.070    87801112.698 8  22374171.930
        48.500

 117215378.421 7  91336672.967 7  22305348.344    22305358.465
        45.500          46.800    22305358.367    87530972.598 8  22305358.004
        51.200

 109759529.681 8  85526941.669 8  20886533.836    20886543.191
        50.800          50.100    20886542.523    81963328.704 8  20886541.023
        53.500

 108215822.485 8  84324121.590 8  20592787.133    20592797.539
        50.500          50.200    20592797.516    80810641.349 8  20592796.035
        53.400

 113960145.040 8  88800139.082 8  21685895.906    21685906.488
        48.100          48.400    21685906.113    85100128.252 8  21685905.848
        52.700

 124624149.981 6  97109788.399 6  23715197.102    23715209.711
        36.400          41.100    23715209.508    93063546.371 7  23715210.203
        43.500

 128611890.83115 100217067.76752  24474025.031    24474031.648
        32.300          15.600


 21  7 19  0 19  0.0000000  0  7G23G08G10G32G27G24G21
 117643480.149 7  91670275.244 7  22386798.508    22386806.867
        44.700          45.800    22386806.340    87850704.845 8  22386809.902
        48.800

 117200444.231 7  91325035.934 7  22302506.094    22302516.324
        45.100          46.600    22302515.977    87519820.440 8  22302516.297
        51.400

 109781666.892 8  85544191.441 8  20890746.125    20890755.695
        52.300          50.200    20890755.316    81979859.734 8  20890753.555
        53.500

 108178656.040 8  84295160.716 8  20585715.250    20585724.984
        52.100          50.700    20585724.852    80782887.190 8  20585723.379
        53.900

 114007330.243 8  88836906.763 7  21694875.938    21694885.395
        48.800          47.800    21694884.938    85135363.940 8  21694885.121
        52.500

 124652181.697 6  97131631.307 7  23720532.695    23720544.754
        37.100          42.100    23720544.727    93084479.112 7  23720543.523
        43.100

 128527923.825 5 100151638.99742  24458048.078    24458052.578
        33.900          15.600


 21  7 19  0 19 30.0000000  0  7G23G08G10G32G27G24G21
 117709991.227 7  91722102.044 7  22399455.375    22399463.344
        44.600          45.500    22399463.176    87900372.189 8  22399467.148
        49.500

 117186081.908 7  91313844.490 7  22299774.047    22299783.477
        45.800          47.300    22299783.871    87509095.317 8  22299783.211
        51.800

 109804002.152 8  85561595.545 8  20894996.430    20895006.039
        52.000          50.000    20895005.254    81996538.668 8  20895003.844
        53.400

 108141990.341 8  84266590.046 8  20578737.500    20578747.715
        51.900          50.900    20578747.430    80755506.969 8  20578746.402
        53.700

 114055031.275 8  88874076.366 8  21703953.047    21703962.688
        48.500          48.200    21703962.121    85170984.808 8  21703962.152
        52.300

 124680775.131 6  97153911.924 6  23725972.789    23725985.391
        36.500          40.900    23725984.668    93105831.349 7  23725986.273
        43.600

 128443980.504 6 100086228.63242  24442072.852    24442078.770
        36.100          17.400


 21  7 19  0 20  0.0000000  0  7G23G08G10G32G27G24G21
 117776603.015 7  91774007.310 7  22412130.617    22412138.910
        43.700          45.400    22412138.074    87950114.703 8  22412143.277
        50.200

 117172292.053 7  91303099.129 7  22297149.547    22297159.594
        45.600          46.600    22297159.895    87498797.674 8  22297158.992
        51.500

 109826535.510 8  85579153.986 8  20899284.742    20899294.008
        51.100          50.400    20899293.379    82013365.508 8  20899291.840
        53.500

 108105826.344 8  84238410.338 8  20571855.961    20571865.777
        51.000          50.700    20571865.836    80728501.406 8  20571864.531
        53.900

 114103246.533 8  88911646.677 8  21713128.047    21713137.762
        48.000          48.300    21713137.469    85206989.684 8  21713136.977
        52.200

 124709930.263 5  97176630.153 6  23731521.313    23731532.961
        35.700          40.900    23731533.215    93127603.069 7  23731532.777
        43.000

 128360062.998 5 100020838.40542  24426103.258    24426109.629
        35.600          17.400


 21  7 19  0 20 30.0000000  0  8G23G18G08G10G32G27G24G21
 117843315.595 7  91825991.115 7  22424826.031    22424835.012
        44.900          46.600    22424834.105    87999932.504 8  22424837.516
        49.300

 122778129.57115  95671413.57516  23363920.438
        31.900          39.600    23363932.367    91685141.00416  23363935.672
        39.100

 117159075.463 7  91292800.494 7  22294634.203    22294644.824
        45.000          46.600    22294645.051    87488928.143 8  22294643.918
        51.800

 109849267.055 8  85596866.885 8  20903609.930    20903619.996
        51.200          50.400    20903619.336    82030340.366 8  20903617.309
        53.400

 108070165.114 8  84210622.380 8  20565070.211    20565079.891
        51.500          50.700    20565079.750    80701871.284 8  20565078.480
        53.900

 114151974.611 7  88949616.580 8  21722400.383    21722410.254
        47.500          48.500    21722410.258    85243377.503 8  21722409.504
        52.100

 124739647.121 6  97199786.112 6  23737175.344    23737188.391
        36.500          41.300    23737189.113    93149794.167 7  23737186.941
        42.700

 128276172.941 6  99955469.60342  24410139.930    24410146.711
        36.600          17.800


 21  7 19  0 21  0.0000000  0  7G23G08G10G32G27G24G21
 117910127.958 7  91878052.674 7  22437540.766    22437548.246
        45.800          45.800    22437548.000    88049824.843 8  22437551.332
        48.400

 117146431.638 7  91282948.147 7  22292227.891    22292238.672
        45.300          46.400    22292238.566    87479486.329 8  22292237.730
        51.300

 109872195.864 8  85614733.477 8  20907973.047    20907982.777
        51.300          49.900    20907981.941    82047462.505 8  20907980.602
        53.400

 108035006.609 8  84183226.141 8  20558379.523    20558389.410
        52.100          51.400    20558389.555    80675616.573 8  20558388.047
        53.900

 114201212.898 7  88987984.058 8  21731770.164    21731779.664
        47.400          48.000    21731779.316    85280146.322 8  21731779.336
        52.100

 124769924.483 6  97223378.884 6  23742939.039    23742949.145
        36.500          38.400    23742947.832    93172403.891 7  23742949.180
        42.900

 128192311.497 6  99890123.10743  24394182.313    24394187.578
        37.300          19.300


 21  7 19  0 21 30.0000000  0  8G23G18G08G10G32G27G24G21
 117977038.812 7  91930190.988 7  22450272.094    22450280.824
        44.800          45.600    22450280.254    88099790.739 8  22450284.523
        49.000

 122959557.02215  95812786.350 6  23398444.461
        31.500          37.500    23398457.695    91820623.252 5  23398457.453
        35.900

 117134360.293 7  91273541.904 7  22289931.672    22289941.410
        46.300          46.800    22289941.480    87470471.998 8  22289940.586
        50.900

 109895320.617 8  85632752.767 8  20912374.102    20912383.191
        51.300          49.700    20912382.547    82064730.995 8  20912381.129
        53.400

 108000350.459 8  84156221.374 8  20551785.195    20551794.742
        51.900          51.000    20551794.242    80649736.990 9  20551793.203
        54.300

 114250958.466 7  89026746.804 8  21741236.336    21741246.691
        46.800          48.100    21741246.258    85317293.949 8  21741245.773
        52.400

 124800761.01815  97247407.291 6  23748805.391    23748816.375
        34.300          38.600    23748816.199    93195431.186 7  23748816.266
        42.600

 128108479.069 6  99824799.17443  24378228.797    24378235.438
        38.200          19.300


 21  7 19  0 22  0.0000000  0  8G23G18G08G10G32G27G24G21
 118044048.967 7  91982406.660 7  22463024.375    22463032.410
        44.500          46.000    22463031.695    88149830.733 8  22463036.500
        49.500

 123050606.44415  95883734.271 6  23415774.797    23415783.484
        31.300          37.500    23415784.461    91888614.956 6  23415785.828
        36.800

 117122862.608 7  91264582.642 7  22287743.141    22287753.699
        45.600          46.800    22287754.258    87461886.050 8  22287752.344
        50.600

 109918642.119 8  85650925.357 8  20916811.914    20916820.906
        51.100          49.900    20916820.504    82082146.395 8  20916819.020
        53.300

 107966198.270 8  84129609.276 8  20545286.438    20545295.664
        52.800          51.400    20545295.613    80624233.744 9  20545294.141
        54.300

 114301210.438 7  89065904.152 8  21750799.039    21750809.008
        46.600          48.500    21750808.434    85354819.743 8  21750808.609
        52.400

 124832157.183 5  97271871.854 6  23754780.438    23754792.762
        35.700          39.800    23754792.211    93218876.384 7  23754791.281
        43.000

 128024678.190 6  99759499.82043  24362280.711    24362287.797
        37.500          20.100


 21  7 19  0 22 30.0000000  0  8G23G18G08G10G32G27G24G21
 118111157.225 7  92034698.793 7  22475794.555    22475803.547
        44.700          46.400    22475802.789    88199944.029 8  22475805.879
        48.600

 123141878.37615  95954855.109 6  23433144.211    23433151.355
        33.300          37.300    23433151.535    91956772.438 6  23433153.906
        38.300

 117111938.482 7  91256070.363 7  22285664.711    22285674.695
        46.000          47.000    22285674.383    87453728.414 8  22285673.672
        50.600

 109942159.231 8  85669250.369 8  20921287.102    20921296.383
        51.200          49.900    20921296.047    82099707.866 8  20921294.352
        53.700

 107932549.765 8  84103389.671 8  20538882.563    20538892.496
        52.100          51.200    20538892.270    80599106.622 9  20538890.965
        54.400

 114351965.939 7  89105453.896 8  21760457.391    21760468.105
        46.400          48.200    21760467.660    85392721.557 8  21760467.137
        52.500

 124864111.630 5  97296771.444 6  23760863.063    23760871.664
        34.000          37.700    23760871.352    93242738.492 7  23760872.930
        43.900

 127940909.751 6  99694225.78643  24346341.422    24346347.148
        38.300          19.600


 21  7 19  0 23  0.0000000  0  8G23G18G08G10G32G27G24G21
 118178363.060 7  92087066.929 7  22488585.266    22488591.754
        45.400          45.600    22488591.176    88250130.177 8  22488594.957
        49.300

 123233371.16614  96026148.090 5  23450550.367    23450561.254
        29.100          35.500    23450561.207    92025094.859 6  23450563.613
        37.900

 117101587.045 7  91248004.271 7  22283694.734    22283705.082
        45.300          46.800    22283705.391    87445998.430 8  22283703.809
        50.700

 109965871.459 8  85687727.427 8  20925799.156    20925808.816
        51.500          50.400    20925808.184    82117415.034 8  20925806.543
        53.500

 107899405.278 8  84077562.826 8  20532576.336    20532585.270
        52.700          51.000    20532585.035    80574355.887 9  20532583.762
        54.300

 114403222.824 7  89145394.292 8  21770210.414    21770221.801
        46.800          49.000    21770221.891    85430997.756 8  21770221.117
        52.600

 124896623.736 5  97322105.492 6  23767046.953    23767058.594
        33.500          39.200    23767058.641    93267016.957 7  23767060.270
        43.800

 127857174.751 6  99628977.79242  24330405.094    24330412.945
        36.800          17.800


 21  7 19  0 23 30.0000000  0  8G23G18G08G10G32G27G24G21
 118245666.732 7  92139511.360 7  22501391.313    22501398.824
        45.000          45.400    22501398.641    88300389.400 8  22501402.129
        49.300

 123325084.46914  96097612.975 5  23468001.945    23468014.688
        28.300          35.700    23468013.699    92093581.998 6  23468016.676
        39.700

 117091809.762 7  91240385.621 7  22281834.063    22281844.488
        45.500          46.800    22281844.387    87438697.214 8  22281843.434
        51.400

 109989779.095 8  85706356.747 8  20930348.633    20930358.398
        51.400          50.400    20930357.738    82135268.143 8  20930356.098
        53.700

 107866765.854 8  84052129.523 8  20526364.227    20526374.078
        52.100          51.500    20526373.930    80549982.309 9  20526372.691
        54.500

 114454979.570 7  89185724.191 7  21780060.523    21780070.363
        47.200          47.600    21780069.914    85469647.244 8  21780070.277
        52.800

 124929693.294 5  97347874.009 6  23773340.516    23773353.074
        32.600          39.200    23773352.613    93291711.758 7  23773352.469
        43.600

 127773475.418 6  99563757.56643  24314478.492    24314485.828
        38.700          19.900


 21  7 19  0 24  0.0000000  0  8G23G18G08G10G32G27G24G21
 118313067.394 7  92192031.352 7  22514216.203    22514225.066
        43.700          45.700    22514224.625    88350721.045 8  22514228.887
        49.200

 123417017.25915  96169248.524 6  23485500.102    23485508.703
        31.000          36.600    23485507.898    92162232.691 6  23485511.051
        39.700

 117082606.162 7  91233213.965 7  22280082.750    22280093.023
        46.300          46.600    22280093.223    87431824.368 8  22280092.234
        51.000

 110013881.326 8  85725137.711 8  20934934.977    20934944.750
        51.200          50.600    20934943.781    82153266.560 8  20934942.543
        53.500

 107834631.461 8  84027089.748 8  20520249.203    20520259.082
        52.700          51.700    20520258.863    80525985.857 9  20520257.836
        54.400

 114507233.653 7  89226441.636 8  21790004.055    21790013.973
        46.900          48.000    21790013.590    85508668.118 8  21790014.094
        52.700

 124963319.263 5  97374076.028 6  23779738.328    23779751.910
        33.000          40.400    23779751.684    93316822.050 7  23779751.363
        43.400

 127689812.851 6  99498565.98343  24298556.688    24298564.930
        37.700          19.000


 21  7 19  0 24 30.0000000  0  7G23G08G10G32G27G24G21
 118380565.677 7  92244627.409 7  22527061.625    22527069.824
        43.600          45.800    22527069.047    88401125.567 8  22527072.680
        48.800

 117073977.859 7  91226490.610 7  22278440.688    22278451.473
        45.200          46.700    22278451.480    87425381.160 8  22278450.180
        51.000

 110038178.779 8  85744070.786 8  20939558.992    20939568.367
        51.400          49.500    20939567.582    82171410.753 8  20939566.262
        53.700

 107803003.472 8  84002444.571 8  20514231.047    20514240.418
        52.600          51.200    20514240.430    80502367.566 9  20514239.289
        54.500

 114559983.872 7  89267545.665 7  21800042.867    21800052.254
        47.500          47.900    21800051.879    85548059.480 8  21800051.973
        52.500

 124997501.908 5  97400711.824 6  23786244.523    23786256.625
        34.800          39.600    23786256.688    93342348.015 7  23786254.902
        43.500

 127606189.262 6  99433404.80843  24282643.914    24282652.297
        37.900          20.100


 21  7 19  0 25  0.0000000  0  7G23G08G10G32G27G24G21
 118448159.481 7  92297297.840 7  22539923.789    22539932.211
        43.200          45.500    22539931.836    88451601.439 8  22539935.328
        48.300

 117065922.385 7  91220213.597 7  22276908.266    22276918.520
        44.800          46.700    22276918.801    87419365.697 8  22276917.180
        51.000

 110062669.303 8  85763154.297 8  20944219.008    20944229.004
        52.500          50.000    20944228.320    82189699.125 8  20944226.504
        53.900

 107771880.457 8  83978192.898 8  20508308.852    20508317.949
        53.200          51.800    20508317.875    80479126.373 9  20508316.551
        54.500

 114613226.306 7  89309033.254 7  21810173.688    21810183.977
        47.400          47.600    21810183.762    85587818.403 8  21810183.316
        52.300

 125032238.659 6  97427779.434 6  23792855.805    23792866.699
        36.000          40.900    23792867.059    93368287.800 7  23792865.516
        43.200

 127522604.564 6  99368273.96343  24266739.641    24266747.270
        38.800          21.300


 21  7 19  0 25 30.0000000  0  8G23G18G08G10G32G27G24G21
 118515847.916 7  92350042.054 7  22552804.648    22552812.770
        43.600          45.800    22552812.535    88502147.976 8  22552815.848
        48.400

 123694108.90015  96385171.24716  23538233.711    23538236.203
        30.500          37.700    23538238.398    92369158.58916  23538242.328
        41.700

 117058439.566 7  91214382.839 7  22275484.219    22275494.406
        44.800          46.400    22275494.449    87413777.883 8  22275493.316
        51.000

 110087352.118 8  85782387.661 8  20948916.359    20948925.887
        52.200          50.400    20948925.148    82208131.083 8  20948923.578
        53.800

 107741262.325 8  83954334.624 8  20502481.719    20502491.547
        52.500          51.300    20502491.465    80456262.202 9  20502490.234
        54.500

 114666958.358 8  89350902.352 8  21820399.695    21820409.207
        48.000          48.000    21820408.930    85627942.948 8  21820408.199
        52.400

 125067528.341 6  97455277.894 6  23799569.375    23799581.922
        36.000          39.900    23799581.402    93394640.535 7  23799581.418
        43.500

 127439059.985 6  99303174.36243  24250841.359    24250849.027
        40.400          22.800


 21  7 19  0 26  0.0000000  0  8G23G18G08G10G32G27G24G21
 118583631.749 7  92402860.631 7  22565703.609    22565711.977
        45.000          46.200    22565711.727    88552765.766 8  22565714.918
        49.100

 123786905.94015  96457480.483 6  23555887.836    23555896.828
        32.000          37.800    23555896.172    92438454.951 6  23555901.070
        41.900

 117051530.446 7  91208999.079 7  22274169.797    22274179.961
        45.100          46.100    22274179.910    87408618.455 8  22274178.617
        50.700

 110112228.024 8  85801771.471 8  20953649.898    20953659.676
        51.600          50.900    20953659.137    82226707.247 8  20953657.406
        53.800

 107711150.543 8  83930870.907 8  20496751.430    20496761.258
        53.000          51.700    20496761.070    80433776.140 9  20496759.961
        54.400

 114721178.916 7  89393152.100 8  21830717.063    21830727.336
        47.500          48.400    21830726.844    85668432.294 8  21830726.379
        52.300

 125103371.385 6  97483207.552 6  23806391.617    23806402.480
        36.400          38.700    23806401.785    93421406.382 7  23806402.277
        44.100

 127355558.192 6  99238108.05743  24234950.602    24234958.434
        40.500          22.600


 21  7 19  0 26 30.0000000  0  8G23G18G08G10G32G27G24G21
 118651510.529 7  92455753.171 7  22578620.406    22578628.758
        43.500          45.400    22578628.547    88603454.443 8  22578631.559
        48.500

 123879916.547 5  96529956.209 6  23573586.953    23573596.637
        33.700          38.000    23573595.449    92507910.840 7  23573601.395
        43.800

 117045195.296 7  91204062.601 7  22272964.023    22272974.066
        44.900          46.600    22272974.473    87403887.656 8  22272973.234
        50.700

 110137296.542 8  85821305.390 8  20958420.453    20958429.969
        52.100          50.300    20958429.184    82245427.240 8  20958427.730
        53.800

 107681545.282 8  83907801.887 8  20491118.281    20491127.668
        53.100          51.000    20491127.480    80411668.333 9  20491126.109
        54.300

 114775885.668 8  89435780.706 8  21841127.016    21841137.238
        48.000          48.200    21841137.129    85709284.688 8  21841136.828
        52.800

 125139766.842 5  97511567.565 6  23813315.906    23813327.121
        34.600          39.000    23813326.652    93448584.752 7  23813328.156
        44.700

 127272100.085 6  99173075.81543  24219069.070    24219077.207
        39.400          22.200


 21  7 19  0 27  0.0000000  0  8G23G18G08G10G32G27G24G21
 118719483.772 7  92508719.276 7  22591555.164    22591564.184
        43.100          46.500    22591563.602    88654213.658 8  22591566.887
        49.500

 123973139.533 6  96602597.350 6  23591327.813    23591336.805
        36.700          39.500    23591336.996    92577525.259 7  23591341.711
        43.200

 117039433.909 7  91199573.196 7  22271867.641    22271878.246
        46.000          47.000    22271878.707    87399585.306 8  22271877.070
        50.500

 110162557.133 8  85840988.939 8  20963227.109    20963236.910
        52.300          50.500    20963236.035    82264290.653 8  20963234.789
        53.800

 107652446.613 8  83885127.613 8  20485580.258    20485590.379
        52.900          51.000    20485590.102    80389938.818 9  20485588.879
        54.100

 114831076.101 8  89478786.202 8  21851629.055    21851639.840
        48.100          48.200    21851639.926    85750498.297 8  21851639.105
        52.100

 125176713.527 5  97540357.161 6  23820346.141    23820359.273
        35.400          39.400    23820358.383    93476174.816 7  23820359.469
        45.000

 127188687.122 6  99108078.74543  24203197.406    24203203.891
        41.100          22.600


 21  7 19  0 27 30.0000000  0  8G23G18G08G10G32G27G24G21
 118787551.683 7  92561759.167 7  22604508.906    22604517.074
        44.600          46.400    22604516.641    88705043.537 8  22604520.527
        49.500

 124066574.339 6  96675403.648 6  23609109.422    23609117.043
        36.900          39.500    23609117.355    92647297.959 7  23609121.766
        43.600

 117034246.503 7  91195531.027 7  22270879.930    22270891.215
        44.700          46.300    22270891.340    87395711.565 8  22270889.789
        50.400

 110188010.116 8  85860822.429 8  20968070.766    20968080.527
        52.700          50.400    20968079.711    82283297.748 8  20968078.145
        53.700

 107623855.467 8  83862848.801 8  20480140.180    20480149.777
        52.100          51.500    20480149.684    80368588.299 9  20480148.367
        54.300

 114886748.720 7  89522167.419 7  21862223.398    21862234.059
        46.800          47.900    21862233.695    85792071.960 8  21862233.172
        52.100

 125214211.333 6  97569576.247 6  23827484.398    23827495.230
        37.500          40.100    23827495.445    93504176.403 7  23827494.832
        44.500

 127105321.393 6  99043118.46843  24187332.055    24187340.387
        40.800          22.000


 21  7 19  0 28  0.0000000  0  8G23G18G08G10G32G27G24G21
 118855712.643 7  92614871.600 7  22617479.453    22617487.543
        44.800          45.500    22617487.180    88755942.934 8  22617490.391
        49.500

 124160218.784 5  96748373.227 6  23626926.227    23626936.973
        34.700          38.900    23626936.023    92717227.153 7  23626941.188
        43.800

 117029631.991 7  91191935.313 7  22270002.648    22270012.461
        44.600          45.800    22270012.711    87392265.661 8  22270011.719
        50.600

 110213653.923 8  85880804.615 8  20972950.359    20972960.402
        52.700          50.100    20972959.703    82302447.338 8  20972957.996
        53.800

 107595770.833 8  83840964.696 8  20474795.344    20474805.348
        52.000          51.300    20474805.219    80347616.025 9  20474804.180
        54.300

 114942899.915 7  89565921.572 8  21872908.734    21872919.219
        47.500          48.200    21872918.980    85834003.019 8  21872918.188
        51.600

 125252258.117 6  97599223.101 6  23834723.258    23834734.203
        36.400          37.600    23834733.191    93532587.957 7  23834734.824
        45.500

 127022003.466 6  98978195.46643  24171477.211    24171485.813
        39.400          22.500


 21  7 19  0 28 30.0000000  0  8G23G18G08G10G32G27G24G21
 118923966.877 7  92668056.695 7  22630467.055    22630475.824
        43.300          45.200    22630475.496    88806911.966 8  22630479.145
        50.000

 124254072.07815  96821505.610 6  23644785.945    23644796.613
        33.000          38.800    23644796.074    92787312.316 7  23644800.520
        44.000

 117025590.862 7  91188786.355 7  22269233.070    22269243.238
        44.000          45.200    22269243.727    87389247.927 8  22269242.527
        50.700

 110239488.699 8  85900935.610 8  20977866.797    20977876.539
        52.900          50.300    20977875.848    82321739.521 8  20977874.258
        53.800

 107568193.409 8  83819475.806 8  20469547.625    20469557.621
        51.400          51.500    20469557.527    80327022.505 9  20469556.301
        54.400

 114999527.936 7  89610047.264 7  21883685.086    21883695.172
        46.300          47.700    21883695.051    85876290.134 8  21883693.520
        50.800

 125290853.519 6  97629297.449 6  23842067.305    23842078.152
        36.500          39.000    23842078.766    93561409.202 7  23842079.988
        45.800

 126938735.410 6  98913311.31643  24155633.313    24155639.742
        38.600          21.300


 21  7 19  0 29  0.0000000  0  8G23G18G08G10G32G27G24G21
 118992314.089 7  92721314.261 7  22643472.867    22643481.570
        43.600          46.200    22643480.820    88857950.444 8  22643485.129
        49.900

 124348133.28215  96894799.989 6  23662687.531    23662695.770
        32.500          39.300    23662695.680    92857552.755 7  23662699.395
        43.900

 117022123.165 7  91186084.233 7  22268573.211    22268583.664
        44.600          45.400    22268583.438    87386658.400 8  22268582.688
        49.900

 110265514.200 8  85921215.212 8  20982819.594    20982829.078
        52.600          51.300    20982828.613    82341174.137 9  20982826.762
        54.500

 107541123.487 8  83798382.362 8  20464396.367    20464406.316
        53.200          52.100    20464406.199    80306807.968 9  20464404.949
        54.300

 115056630.557 7  89654542.784 8  21894551.344    21894561.441
        46.700          48.000    21894561.012    85918931.666 8  21894560.148
        50.900

 125329996.627 6  97659798.556 6  23849515.984    23849527.563
        36.100          37.700    23849527.039    93590639.410 7  23849528.316
        45.800

 126855518.521 6  98848467.02543  24139797.125    24139803.961
        38.700          20.900


 21  7 19  0 29 30.0000000  0  8G23G18G08G10G32G27G24G21
 119060752.848 7  92774643.137 7  22656496.711    22656505.754
        44.300          45.900    22656505.484    88909057.266 8  22656508.680
        48.800

 124442400.18915  96968254.720 6  23680624.375    23680634.250
        32.000          39.900    23680634.590    92927946.826 7  23680637.469
        43.500

 117019227.367 7  91183827.733 7  22268022.453    22268032.598
        44.500          45.600    22268032.289    87384495.948 8  22268031.863
        49.600

 110291729.014 8  85941642.317 8  20987808.016    20987817.422
        52.000          50.300    20987816.879    82360750.126 9  20987815.406
        54.100

 107514560.133 8  83777683.660 8  20459341.891    20459351.590
        52.300          51.700    20459351.496    80286971.703 9  20459350.113
        54.200

 115114204.324 7  89699405.419 8  21905507.063    21905517.559
        46.000          48.400    21905517.684    85961925.013 8  21905516.094
        50.700

 125369685.356 6  97690724.800 6  23857070.297    23857080.008
        37.100          38.900    23857080.223    93620277.052 7  23857080.832
        45.700

 126772353.274 6  98783662.97743  24123972.672    24123977.773
        39.100          21.500


 21  7 19  0 30  0.0000000  0  8G23G18G08G10G32G27G24G21
 119129283.759 7  92828043.780 7  22669538.789    22669546.352
        44.500          45.300    22669545.965    88960232.896 8  22669549.363
        48.300

 124536872.55316  97041869.520 6  23698604.328    23698612.508
        36.000          39.400    23698612.234    92998494.335 7  23698615.129
        42.800

 117016904.095 7  91182017.385 7  22267579.969    22267590.926
        44.200          46.100    22267590.871    87382761.015 8  22267589.523
        49.600

 110318133.705 8  85962217.404 8  20992832.711    20992842.063
        51.900          50.500    20992841.410    82380467.908 9  20992840.008
        54.100

 107488504.415 8  83757380.509 8  20454383.078    20454393.266
        53.100          51.500    20454392.895    80267514.517 9  20454391.883
        54.200

 115172247.791 7  89744634.059 8  21916551.773    21916562.754
        46.500          48.200    21916562.281    86005269.134 8  21916561.703
        51.000

 125409919.615 6  97722076.182 6  23864726.391    23864736.266
        38.600          37.900    23864735.348    93650322.096 7  23864736.781
        45.500

 126689242.193 6  98718901.09643  24108155.008    24108162.754
        38.600          21.300


 21  7 19  0 30 30.0000000  0  8G23G18G08G10G32G27G24G21
 119197906.512 7  92881516.067 7  22682596.867    22682605.156
        43.800          45.700    22682604.777    89011477.173 8  22682607.461
        48.100

 124631549.50315  97115643.647 6  23716620.023    23716628.957
        35.000          39.200    23716629.000    93069194.527 7  23716632.672
        43.400

 117015153.608 7  91180653.355 7  22267247.711    22267257.484
        44.600          45.700    22267257.824    87381453.801 8  22267256.453
        49.800

 110344728.117 8  85982940.296 8  20997893.641    20997902.902
        51.600          50.200    20997902.258    82400327.354 9  20997900.801
        54.100

 107462956.605 8  83737473.134 8  20449521.539    20449531.902
        52.300          51.400    20449531.625    80248436.633 9  20449530.207
        54.300

 115230758.777 7  89790226.998 8  21927686.703    21927696.984
        46.300          48.200    21927696.840    86048962.346 8  21927696.184
        51.200

 125450698.628 6  97753851.996 6  23872484.477    23872496.723
        36.200          39.700    23872496.176    93680773.899 7  23872497.219
        46.100

 126606186.921 6  98654182.77843  24092349.039    24092358.313
        37.900          20.400


 21  7 19  0 31  0.0000000  0  8G23G18G08G10G32G27G24G21
 119266620.982 7  92935059.771 7  22695672.867    22695680.945
        42.800          45.500    22695680.148    89062789.892 8  22695684.004
        48.700

 124726429.91415  97189576.326 6  23734672.945    23734684.234
        34.300          39.200    23734685.137    93140046.655 6  23734687.723
        41.800

 117013975.181 7  91179735.070 7  22267022.922    22267033.230
        44.700          45.900    22267033.684    87380573.779 8  22267032.465
        49.600

 110371512.004 8  86003810.848 8  21002989.930    21002999.609
        51.200          51.000    21002998.914    82420328.286 8  21002997.344
        53.900

 107437916.906 8  83717961.680 8  20444757.117    20444767.078
        53.600          51.500    20444766.793    80229738.154 9  20444765.121
        54.100

 115289734.931 7  89836182.401 7  21938909.242    21938919.559
        46.200          47.400    21938919.617    86093002.933 8  21938919.105
        51.100

 125492021.353 5  97786051.459 6  23880348.586    23880359.395
        35.000          38.800    23880359.402    93711631.733 7  23880360.895
        45.000

 126523188.914 6  98589509.01743  24076556.469    24076564.074
        38.700          21.800


 21  7 19  0 31 30.0000000  0  8G23G18G08G10G32G27G24G21
 119335426.573 7  92988674.490 7  22708766.078    22708774.063
        42.700          45.500    22708773.637    89114170.653 8  22708777.465
        49.300

 124821512.79115  97263666.418 6  23752768.750    23752778.586
        34.500          37.700    23752778.016    93211049.650 7  23752782.785
        42.000

 117013368.905 7  91179262.629 7  22266906.953    22266917.484
        43.900          45.500    22266918.180    87380121.004 8  22266916.930
        49.600

 110398484.855 8  86024828.661 8  21008122.750    21008132.348
        51.200          50.500    21008131.664    82440470.345 8  21008129.977
        53.900

 107413385.179 8  83698846.061 8  20440089.039    20440098.699
        53.400          51.700    20440098.547    80211419.027 9  20440096.871
        54.500

 115349173.610 7  89882498.239 7  21950220.258    21950230.293
        45.900          47.500    21950230.094    86137388.938 8  21950229.516
        50.700

 125533886.502 6  97818673.642 6  23888316.766    23888326.902
        37.600          40.100    23888325.941    93742894.659 7  23888327.637
        45.600

 126440249.784 6  98524881.15043  24060773.938    24060781.039
        39.400          22.000


 21  7 19  0 32  0.0000000  0  8G23G18G08G10G32G27G24G21
 119404322.727 7  93042359.758 7  22721875.297    22721884.383
        42.800          45.400    22721884.426    89165619.044 8  22721887.355
        48.700

 124916795.34015  97337912.820 6  23770897.023    23770909.473
        32.300          37.400    23770909.805    93282202.461 6  23770912.766
        40.700

 117013333.750 7  91179235.221 7  22266899.875    22266910.625
        45.500          45.300    22266910.563    87380094.754 8  22266910.355
        49.900

 110425646.095 8  86045993.244 8  21013291.461    21013301.184
        50.900          50.300    21013300.453    82460753.069 9  21013298.617
        54.100

 107389361.253 8  83680126.122 8  20435517.406    20435527.078
        53.400          51.600    20435526.891    80193479.082 9  20435525.328
        54.400

 115409072.208 7  89929172.423 7  21961618.594    21961628.797
        46.000          47.200    21961628.000    86182118.357 8  21961628.164
        50.600

 125576292.742 6  97851717.499 6  23896384.680    23896397.543
        37.100          40.400    23896396.531    93774561.682 7  23896397.563
        46.200

 126357370.851 6  98460300.20143  24045002.047    24045010.082
        38.300          20.600


 21  7 19  0 32 30.0000000  0  8G23G18G08G10G32G27G24G21
 119473309.052 7  93096115.310 7  22735003.039    22735012.090
        42.700          44.900    22735011.836    89217134.763 8  22735015.031
        48.300

 125012277.63915  97412314.564 5  23789068.852    23789079.164
        32.600          35.700    23789077.738    93353504.145 6  23789082.547
        40.900

 117013869.966 7  91179653.045 7  22267002.703    22267012.855
        45.100          45.000    22267012.617    87380495.151 8  22267012.520
        49.900

 110452995.295 8  86067304.323 8  21018496.352    21018505.336
        51.000          50.000    21018504.848    82481176.174 9  21018503.230
        54.000

 107365845.053 9  83661801.826 8  20431042.438    20431051.895
        54.000          51.400    20431051.738    80175918.309 9  20431050.504
        54.500

 115469428.196 7  89976203.013 7  21973104.070    21973114.379
        45.800          47.800    21973114.156    86227189.337 8  21973113.566
        50.800

 125619238.956 6  97885182.040 6  23904556.039    23904568.559
        36.500          39.800    23904568.734    93806631.864 7  23904569.969
        47.000

 126274553.251 6  98395767.05643  24029241.680    24029249.707
        38.300          20.400


 21  7 19  0 33  0.0000000  0  8G23G18G08G10G32G27G24G21
 119542385.395 7  93149940.998 7  22748148.102    22748156.996
        43.400          45.700    22748156.512    89268717.713 8  22748160.160
        48.500

 125107958.38715  97486870.932 6  23807274.461    23807285.277
        32.000          36.300    23807284.984    93424953.932 6  23807290.031
        40.600

 117014977.060 7  91180515.685 7  22267213.594    22267223.738
        44.300          45.200    22267223.855    87381321.852 8  22267222.984
        50.200

 110480532.390 8  86088761.777 8  21023736.320    21023745.488
        51.400          50.700    21023745.121    82501739.575 9  21023743.441
        54.000

 107342836.856 9  83643873.367 8  20426663.750    20426673.527
        54.100          51.700    20426673.543    80158736.861 9  20426672.406
        54.800

 115530239.307 7  90023588.255 7  21984676.031    21984686.574
        45.500          47.400    21984686.250    86272600.183 8  21984685.242
        50.200

 125662724.118 6  97919066.557 6  23912832.602    23912844.520
        37.300          40.500    23912844.195    93839104.530 7  23912844.664
        46.700

 126191799.153 6  98331283.37443  24013494.828    24013502.387
        39.200          20.900


 21  7 19  0 33 30.0000000  0  8G23G18G08G10G32G27G24G21
 119611551.005 7  93203836.285 7  22761311.438    22761319.043
        44.400          45.300    22761318.883    89320367.332 8  22761322.117
        48.800

 125203835.863 6  97561580.595 6  23825522.938    23825531.027
        36.100          36.900    23825531.008    93496550.717 6  23825534.090
        39.900

 117016654.308 7  91181822.635 7  22267532.688    22267543.027
        44.500          45.300    22267542.711    87382574.330 8  22267542.500
        50.200

 110508256.658 8  86110365.098 8  21029011.680    21029021.238
        51.900          50.300    21029020.590    82522442.757 9  21029019.156
        54.100

 107320336.237 8  83626340.436 8  20422382.281    20422391.703
        53.700          51.900    20422391.777    80141934.463 9  20422390.672
        54.800

 115591502.621 7  90071325.869 8  21996334.305    21996344.602
        46.500          48.100    21996344.516    86318348.734 8  21996343.469
        50.300

 125706746.709 6  97953369.855 6  23921209.359    23921221.164
        37.200          39.700    23921220.809    93871978.485 7  23921221.211
        46.200

 126109109.438 6  98266849.86443  23997758.227    23997767.063
        38.300          19.900


 21  7 19  0 34  0.0000000  0  8G23G18G08G10G32G27G24G21
 119680805.074 7  93257800.457 7  22774489.188    22774497.617
        43.100          46.000    22774497.770    89372083.000 8  22774500.434
        48.500

 125299908.461 6  97636442.246 6  23843804.398    23843813.148
        36.700          37.600    23843813.574    93568293.080 6  23843817.078
        40.400

 117018901.053 7  91183573.324 7  22267960.570    22267970.445
        44.900          44.600    22267970.770    87384252.074 8  22267970.086
        50.500

 110536167.264 8  86132113.621 8  21034322.742    21034332.426
        51.000          50.300    21034331.871    82543285.087 9  21034330.277
        54.100

 107298342.628 8  83609202.563 8  20418197.055    20418206.574
        53.300          51.700    20418206.395    80125510.669 9  20418205.266
        55.000

 115653215.169 7  90119413.532 8  22008077.242    22008088.289
        45.300          48.400    22008087.977    86364432.722 8  22008087.387
        50.700

 125751304.909 6  97988090.558 6  23929689.586    23929699.977
        36.800          40.600    23929700.734    93905252.464 7  23929701.023
        47.000

 126026485.314 6  98202467.44343  23982037.477    23982043.844
        38.400          20.100


 21  7 19  0 34 30.0000000  0  8G23G18G08G10G32G27G24G21
 119750148.040 7  93311833.886 7  22787684.531    22787693.547
        43.900          45.500    22787693.102    89423865.021 7  22787695.555
        47.500

 125396175.554 6  97711455.531 6  23862123.430    23862133.406
        36.400          38.100    23862134.160    93640180.801 6  23862137.797
        40.300

 117021717.179 7  91185767.702 7  22268495.891    22268506.211
        45.000          44.900    22268506.688    87386355.022 8  22268506.035
        50.000

 110564264.628 8  86154007.661 8  21039670.063    21039679.371
        52.100          50.800    21039678.824    82564266.878 8  21039677.281
        53.900

 107276856.706 8  83592460.293 8  20414108.656    20414118.051
        52.700          51.300    20414117.727    80109466.005 9  20414116.516
        54.600

 115715375.123 7  90167849.846 8  22019906.398    22019917.117
        45.200          48.300    22019916.871    86410850.859 8  22019915.773
        50.200

 125796398.312 6  98023228.309 6  23938270.297    23938282.246
        36.600          41.100    23938282.918    93938926.137 7  23938282.207
        46.200

 125943928.805 6  98138137.76643  23966325.875    23966334.395
        36.800          18.300


 21  7 19  0 35  0.0000000  0  8G23G18G08G10G32G27G24G21
 119819579.832 7  93365936.525 7  22800896.602    22800905.852
        43.500          45.200    22800905.219    89475713.400 8  22800908.227
        48.200

 125492636.249 5  97786619.617 6  23880479.695    23880489.254
        34.800          37.300    23880488.645    93712213.054 6  23880491.680
        39.200

 117025101.870 7  91188405.102 7  22269139.578    22269150.473
        44.700          43.900    22269150.762    87388882.538 8  22269149.957
        50.000

 110592548.722 8  86176047.208 8  21045051.570    21045061.660
        50.900          50.100    21045060.996    82585388.095 9  21045059.648
        54.100

 107255878.729 9  83576113.826 8  20410116.469    20410125.988
        54.000          52.100    20410125.797    80093800.647 9  20410124.602
        54.800

 115777980.316 7  90216633.049 7  22031819.406    22031830.023
        46.200          47.700    22031830.023    86457601.441 8  22031829.254
        50.400

 125842026.063 5  98058782.359 6  23946947.695    23946964.219
        33.700          38.800    23946963.039    93972998.736 7  23946964.438
        46.000

 125861441.847 6  98073862.24343  23950628.250    23950637.344
        37.000          18.300


 21  7 19  0 35 30.0000000  0  9G23G18G22G08G10G32G27G24G21
 119889099.881 7  93420107.953 7  22814126.219    22814134.875
        43.900          45.200    22814134.180    89527627.693 8  22814138.305
        48.200

 125589289.154 5  97861933.480 6  23898871.469    23898881.754
        32.900          37.200    23898881.168    93784388.804 6  23898883.000
        37.900

 133214760.174 4                  25349917.688
        29.600


 117029055.144 7  91191485.553 7  22269892.164    22269902.598
        44.900          44.500    22269902.984    87391834.625 8  22269902.141
        49.600

 110621018.992 8  86198231.830 8  21050469.625    21050479.152
        51.400          50.500    21050478.684    82606648.361 9  21050477.262
        54.100

 107235408.356 9  83560162.886 8  20406220.492    20406230.516
        54.100          51.400    20406230.215    80078514.343 9  20406229.355
        54.900

 115841027.856 7  90265760.985 8  22043817.781    22043827.422
        46.500          48.000    22043827.441    86504682.347 8  22043826.801
        50.400

 125888186.494 6  98094751.447 6  23955734.844    23955747.668
        36.400          40.800    23955747.930    94007469.146 7  23955748.047
        45.800

 125779025.944 6  98009642.06943  23934945.172    23934953.625
        37.500          19.900


 21  7 19  0 36  0.0000000  0  9G23G18G22G08G10G32G27G24G21
 119958707.784 7  93474347.847 7  22827372.047    22827380.930
        43.700          45.100    22827380.215    89579607.613 8  22827384.047
        48.600

 125686132.705 5  97937395.999 5  23917302.477    23917310.141
        31.000          34.100    23917309.000    93856706.975 6  23917314.449
        38.900

 133136623.46314 103742829.95852  25335048.688    25335058.867
        29.100          13.900


 117033576.740 7  91195008.860 7  22270752.766    22270763.129
        45.100          45.000    22270763.086    87395211.113 8  22270762.164
        49.300

 110649675.039 8  86220561.220 8  21055922.828    21055932.688
        51.400          50.500    21055932.082    82628047.351 9  21055930.457
        54.100

 107215445.320 9  83544607.292 8  20402421.867    20402431.555
        54.100          52.000    20402431.324    80063606.898 9  20402430.465
        54.800

 115904515.112 7  90315231.547 7  22055898.242    22055908.543
        46.400          47.200    22055908.078    86552091.624 8  22055907.930
        50.400

 125934878.223 6  98131134.622 6  23964623.172    23964634.031
        38.100          40.700    23964633.531    94042336.343 7  23964633.566
        45.300

 125696682.473 6  97945478.38143  23919276.969    23919283.680
        37.500          19.300


 21  7 19  0 36 30.0000000  0  8G23G22G08G10G32G27G24G21
 120028402.538 7  93528655.418 7  22840635.219    22840643.477
        44.100          45.600    22840643.230    89631652.343 8  22840646.941
        48.600

 133058518.53915 103681968.98551  25320187.680    25320195.938
        30.300          10.900


 117038664.871 7  91198973.628 7  22271721.023    22271731.367
        44.500          44.400    22271731.574    87399010.677 8  22271730.875
        49.500

 110678515.854 8  86243034.578 8  21061410.914    21061420.875
        51.200          50.500    21061420.285    82649584.319 9  21061418.867
        54.300

 107195988.857 9  83529446.423 8  20398720.203    20398729.082
        54.500          51.200    20398729.082    80049077.733 9  20398727.973
        54.800

 115968438.828 7  90365042.219 8  22068062.867    22068073.289
        46.300          48.000    22068072.973    86599826.836 8  22068072.051
        50.300

 125982099.297 6  98167930.216 6  23973609.945    23973618.707
        38.700          40.300    23973618.488    94077598.823 7  23973619.301
        45.400

 125614412.174 6  97881371.67243  23903620.273    23903628.410
        36.600          20.100


 21  7 19  0 37  0.0000000  0  8G23G22G08G10G32G27G24G21
 120098184.716 7  93583031.124 7  22853914.727    22853922.609
        43.700          45.000    22853922.215    89683762.371 8  22853925.793
        48.900

 132980448.38415                  25305331.633
        30.800


 117044320.080 7  91203380.229 7  22272796.969    22272807.402
        44.200          44.700    22272807.973    87403233.694 8  22272806.859
        49.800

 110707542.094 8  86265652.419 8  21066934.484    21066944.344
        51.900          50.500    21066944.039    82671259.741 9  21066942.184
        54.100

 107177039.663 8  83514680.824 8  20395113.570    20395123.227
        53.700          51.700    20395123.055    80034927.372 9  20395122.016
        54.800

 116032797.272 7  90415191.632 7  22080309.828    22080320.422
        46.300          47.300    22080320.082    86647886.678 8  22080319.211
        50.500

 126029849.288 6  98205137.881 6  23982695.992    23982705.609
        37.700          40.800    23982705.027    94113256.231 7  23982706.766
        46.000

 125532218.145 6  97817324.40743  23887978.578    23887987.789
        36.800          19.600


 21  7 19  0 37 30.0000000  0  8G23G22G08G10G32G27G24G21
 120168053.729 7  93637474.483 7  22867209.961    22867218.605
        43.700          44.900    22867218.031    89735937.236 8  22867221.207
        49.000

 132902410.41115                  25290477.625
        31.800


 117050541.514 7  91208228.107 7  22273981.492    22273992.000
        44.500          45.600    22273992.199    87407879.566 8  22273991.238
        49.300

 110736753.122 8  86288414.252 8  21072493.641    21072503.121
        51.700          50.000    21072502.516    82693073.167 8  21072500.664
        53.800

 107158597.278 9  83500310.146 8  20391603.898    20391613.594
        54.200          51.900    20391613.625    80021155.466 9  20391612.418
        54.600

 116097587.590 7  90465677.553 7  22092638.633    22092649.465
        46.300          47.300    22092648.813    86696268.999 8  22092648.781
        50.600

 126078126.402 6  98242756.430 6  23991880.656    23991892.563
        37.200          40.800    23991892.484    94149307.323 7  23991893.695
        46.200

 125450100.814 6  97753336.93743  23872354.188    23872361.852
        37.700          19.300


 21  7 19  0 38  0.0000000  0  9G23G18G22G08G10G32G27G24G21
 120238010.201 7  93691985.968 7  22880522.125    22880530.941
        42.900          44.500    22880530.082    89788177.410 8  22880534.035
        49.100

 126075383.65615  98240711.28415  23991374.992
        33.900          30.600    23991380.102    94147384.177 6  23991387.844
        39.700

 132824398.47415                  25275636.094
        32.300


 117057329.453 7  91213517.384 7  22275272.898    22275283.156
        44.500          45.300    22275283.410    87412948.458 8  22275282.461
        49.300

 110766149.541 8  86311320.531 8  21078086.625    21078096.684
        52.500          50.300    21078096.387    82715025.022 9  21078094.648
        54.000

 107140662.397 9  83486334.916 8  20388191.078    20388200.672
        54.100          51.000    20388200.645    80007762.555 9  20388199.379
        54.800

 116162808.006 7  90516498.635 7  22105049.180    22105060.309
        46.200          47.100    22105060.176    86744972.521 8  22105059.871
        50.900

 126126930.306 6  98280785.427 6  24001168.203    24001179.176
        36.100          40.400    24001179.809    94185751.756 7  24001180.059
        46.300

 125368062.656 6  97689411.15143  23856741.875    23856750.742
        36.900          19.900


 21  7 19  0 38 30.0000000  0  9G23G18G22G08G10G32G27G24G21
 120308051.771 7  93746563.791 7  22893849.703    22893858.895
        42.600          44.400    22893858.379    89840481.136 8  22893862.273
        48.700

 126173161.050 5  98316901.402 5  24009981.094
        33.500          32.500    24009989.777    94220399.637 6  24009993.824
        40.500

 132746428.873 5                  25260802.367
        35.000


 117064680.996 7  91219245.853 7  22276672.305    22276682.367
        45.200          46.300    22276682.727    87418438.219 8  22276681.563
        50.100

 110795729.068 8  86334369.508 8  21083716.109    21083725.566
        52.400          50.200    21083725.242    82737113.611 9  21083723.605
        54.000

 107123232.833 9  83472753.448 8  20384875.016    20384884.176
        54.700          51.600    20384883.645    79994746.979 9  20384882.633
        54.700

 116228453.897 7  90567651.232 7  22117542.453    22117552.367
        47.100          46.700    22117551.703    86793993.750 8  22117552.238
        51.100

 126176257.535 6  98319222.178 6  24010555.078    24010565.781
        36.700          40.800    24010565.992    94222586.977 7  24010567.309
        47.000

 125286104.141 6  97625547.43542  23841146.398    23841153.609
        36.300          17.800


 21  7 19  0 39  0.0000000  0  9G23G18G22G08G10G32G27G24G21
 120378179.517 7  93801208.775 7  22907194.898    22907203.410
        42.600          44.500    22907203.004    89892849.244 8  22907206.906
        48.400

 126271121.641 5  98393234.21415  24028621.250
        33.700          32.200    24028631.801    94293551.979 6  24028634.773
        39.700

 132668493.899 5                  25245968.758
        32.600


 117072596.646 7  91225413.857 7  22278178.672    22278188.473
        44.300          46.400    22278188.691    87424349.221 8  22278187.805
        49.200

 110825492.835 8  86357562.038 8  21089379.453    21089389.367
        51.500          50.500    21089388.730    82759339.803 9  21089387.441
        54.100

 107106309.737 9  83459566.647 8  20381654.805    20381663.672
        54.900          51.700    20381663.523    79982109.618 9  20381662.223
        54.600

 116294523.990 7  90619134.389 7  22130114.570    22130125.375
        46.800          47.300    22130125.027    86843331.771 8  22130124.797
        51.200

 126226108.012 6  98358066.720 6  24020040.758    24020053.031
        36.500          41.600    24020052.645    94259812.973 7  24020053.207
        46.800

 125204227.644 6  97561747.57243  23825565.359    23825572.441
        36.900          19.000


 21  7 19  0 39 30.0000000  0  9G23G18G22G08G10G32G27G24G21
 120448393.371 7  93855920.831 7  22920556.906    22920565.301
        42.500          44.900    22920564.844    89945281.616 8  22920568.535
        48.100

 126369264.401 5                  24047294.344
        31.900                                    94366840.259 6  24047310.563
        38.800

 132590592.74215                  25231146.992
        33.900


 117081076.309 7  91232021.362 7  22279792.188    22279802.711
        45.200          46.400    22279803.012    87430681.417 8  22279801.324
        48.800

 110855440.680 8  86380897.999 8  21095078.609    21095088.352
        50.900          50.300    21095088.078    82781703.429 8  21095086.234
        53.800

 107089892.908 8  83446774.325 8  20378530.531    20378539.871
        53.700          52.000    20378539.746    79969850.313 9  20378538.270
        54.500

 116361015.702 7  90670946.070 7  22142768.359    22142778.664
        47.100          47.900    22142778.539    86892984.627 8  22142777.566
        51.000

 126276480.470 6  98397317.925 6  24029626.539    24029637.652
        36.400          39.700    24029636.570    94297428.704 7  24029638.883
        45.800

 125122435.350 6  97498013.37343  23810002.688    23810007.883
        37.500          20.100


 21  7 19  0 40  0.0000000  0 10G23G18G22G08G10G31G32G27G24G21
 120518692.115 6  93910699.002 7  22933934.125    22933942.578
        41.800          44.400    22933942.242    89997777.357 8  22933946.438
        48.300

 126467586.999 5  98546320.78715  24066006.516
        34.800          31.200    24066020.051    94440262.945 6  24066021.148
        38.800

 132512725.361 5                  25216328.617
        33.300


 117090118.012 7  91239066.835 7  22281512.211    22281523.160
        45.100          46.000    22281523.449    87437433.300 8  22281521.867
        49.400

 110885571.410 8  86404376.512 8  21100812.648    21100822.215
        51.700          50.200    21100821.633    82804203.649 8  21100819.773
        53.700

 132654325.06714 103367108.58714  25243292.461
        26.800          29.000    25243304.879


 107073981.267 9  83434375.648 8  20375502.469    20375511.746
        54.700          51.600    20375511.609    79957968.241 9  20375510.516
        54.600

 116427925.542 7  90723083.569 7  22155500.031    22155511.109
        47.200          46.700    22155511.152    86942949.714 8  22155510.297
        51.300

 126327372.596 5  98436974.064 7  24039309.938    24039323.184
        35.700          42.200    24039322.656    94335432.504 7  24039323.328
        45.900

 125040727.424 6  97434344.90643  23794454.430    23794460.023
        37.700          18.600


 21  7 19  0 40 30.0000000  0  9G23G18G22G08G10G32G27G24G21
 120589076.718 6  93965544.108 7  22947326.234    22947335.684
        41.100          43.500    22947335.109    90050337.259 7  22947339.367
        47.200

 126566089.359 5  98623071.87214  24084751.305
        34.800          29.000    24084762.172    94513819.781 6  24084767.402
        37.200

 132434891.848 5 103196031.98652  25201514.969    25201525.168
        31.800          14.800


 117099722.590 7  91246550.911 7  22283340.633    22283350.957
        45.200          46.600    22283350.949    87444605.536 8  22283349.707
        49.300

 110915886.044 8  86427998.279 8  21106581.484    21106590.906
        51.000          50.700    21106590.172    82826841.179 8  21106588.441
        53.800

 107058575.717 9  83422371.330 8  20372570.469    20372580.086
        54.800          51.800    20372580.117    79946464.113 9  20372579.070
        54.700

 116495252.016 7  90775545.727 7  22168312.609    22168322.961
        46.300          47.300    22168322.941    86993225.939 8  22168322.020
        51.300

 126378783.935 6  98477034.895 6  24049095.203    24049106.211
        37.100          41.700    24049105.727    94373824.104 7  24049106.996
        44.700

 124959107.079 5  97370744.64542  23778921.516    23778927.730
        35.900          17.800


 21  7 19  0 41  0.0000000  0  9G23G18G22G08G10G32G27G24G21
 120659546.334 7  94020455.491 7  22960735.727    22960744.977
        42.600          42.800    22960745.316    90102960.642 7  22960749.258
        47.200

 126664769.752 5                  24103530.117
        35.400                                    94587509.577 6  24103546.004
        36.000

 132357092.254 5 103135408.97642  25186711.367    25186720.891
        33.900          16.900


 117109888.905 7  91254472.680 7  22285274.984    22285285.148
        45.600          46.100    22285285.223    87452197.239 8  22285284.895
        49.700

 110946383.828 8  86451762.780 8  21112384.961    21112394.324
        51.000          50.400    21112393.816    82849615.483 8  21112391.941
        53.300

 107043675.503 9  83410760.788 8  20369735.547    20369744.668
        55.000          51.100    20369744.574    79935337.343 9  20369743.301
        54.400

 116562991.968 7  90828330.066 7  22181203.031    22181213.016
        47.300          46.700    22181213.078    87043810.936 8  22181212.574
        51.100

 126430712.732 6  98517498.832 6  24058976.539    24058986.871
        37.500          40.900    24058987.297    94412602.056 7  24058988.875
        44.300

 124877575.475 5  97307213.57742  23763404.719    23763412.973
        35.500          17.800


 21  7 19  0 41 30.0000000  0  9G23G18G22G08G10G32G27G24G21
 120730100.566 7  94075432.793 7  22974164.539    22974171.766
        43.400          43.600    22974171.773    90155647.225 7  22974174.914
        47.100

 126763626.601 5  98776992.797 6  24122341.352
        34.500          36.000    24122355.813    94661331.118 5  24122354.008
        33.300

 132279326.591 5 103074812.44142  25171913.234    25171922.699
        34.500          16.300


 117120615.492 7  91262831.039 7  22287315.680    22287326.875
        45.500          47.100    22287327.191    87460207.329 8  22287325.387
        49.800

 110977064.318 8  86475669.638 8  21118223.180    21118232.648
        50.200          50.000    21118231.695    82872526.216 8  21118230.363
        53.400

 107029280.084 9  83399543.583 8  20366995.922    20367005.480
        55.000          51.400    20367005.168    79924587.525 9  20367004.102
        54.600

 116631142.458 7  90881434.316 7  22194171.688    22194181.773
        47.500          46.600    22194181.152    87094702.493 8  22194181.508
        51.400

 126483157.068 6  98558364.506 6  24068956.391    24068967.520
        37.900          41.000    24068967.656    94451765.012 7  24068968.000
        43.600

 124796133.846 5  97243752.62243  23747906.789    23747914.973
        35.200          19.600


 21  7 19  0 42  0.0000000  0 10G23G18G22G08G10G31G32G27G24G21
 120800738.689 7  94130475.422 7  22987606.195    22987614.078
        43.900          43.200    22987613.598    90208396.414 7  22987617.563
        47.200

 126862658.020 5  98854160.148 5  24141186.727
        33.200          30.300    24141194.355    94735283.069 6  24141201.348
        37.500

 132201594.966 6 103014242.42642  25157122.070    25157129.582
        37.100          17.800


 117131901.309 7  91271625.179 7  22289463.820    22289474.133
        45.200          45.900    22289473.797    87468635.044 8  22289473.172
        49.800

 111007926.738 8  86499718.268 8  21124096.094    21124105.496
        51.300          50.000    21124105.016    82895572.816 8  21124103.699
        53.700

 132236236.34015                  25163732.547
        30.500


 107015388.639 9  83388719.086 8  20364352.633    20364361.980
        54.100          51.700    20364361.707    79914214.048 9  20364360.754
        54.600

 116699700.324 7  90934855.979 7  22207217.781    22207228.008
        46.600          46.800    22207227.734    87145898.249 8  22207227.789
        51.500

 126536115.018 6  98599630.441 6  24079033.664    24079045.023
        38.400          40.500    24079044.492    94491311.533 7  24079045.551
        43.700

 124714783.399 6  97180362.71143  23732429.398    23732434.590
        38.700          21.300


 21  7 19  0 42 30.0000000  0 10G23G18G22G08G10G31G32G27G24G21
 120871460.555 7  94185583.297 7  23001064.789    23001072.520
        42.200          43.700    23001071.555    90261208.127 7  23001076.098
        47.200

 126961862.850 5  98931462.513 5  24160065.695
        33.300          34.900    24160075.805    94809364.535 6  24160079.574
        38.700

 132123896.068 6 102953697.93142  25142336.695    25142344.109
        37.700          16.300


 117143745.716 7  91280854.585 7  22291718.172    22291728.020
        46.400          46.500    22291728.746    87477479.889 8  22291726.859
        49.800

 111038970.994 8  86523908.583 8  21130003.172    21130013.363
        50.600          50.400    21130012.676    82918755.206 8  21130011.277
        53.800

 132131342.20115                  25143773.609
        31.500


 107002000.941 9  83378287.122 8  20361804.813    20361814.430
        55.100          51.900    20361814.078    79904216.754 9  20361813.270
        54.700

 116768662.909 7  90988593.024 7  22220341.047    22220350.797
        45.700          46.000    22220350.434    87197396.253 8  22220350.758
        51.500

 126589585.193 6  98641295.478 6  24089209.594    24089220.266
        38.000          41.100    24089220.383    94531240.526 7  24089220.105
        42.900

 124633526.149 6  97117045.38643  23716965.961    23716971.969
        38.200          21.300


 21  7 19  0 43  0.0000000  0  9G23G18G22G08G10G32G27G24G21
 120942266.470 7  94240756.720 7  23014537.641    23014545.898
        44.100          43.600    23014545.797    90314082.640 7  23014549.188
        46.700

 127061240.97815  99008899.591 6  24178976.250
        31.900          36.000    24178986.148    94883574.976 6  24178990.383
        40.000

 132046231.268 6 102893179.96842  25127556.320    25127564.820
        37.000          17.800


 117156148.225 7  91290518.859 7  22294078.461    22294088.109
        46.700          46.800    22294088.703    87486741.476 8  22294087.379
        50.400

 111070197.479 8  86548240.906 8  21135945.469    21135955.141
        50.200          50.700    21135954.535    82942073.664 8  21135953.488
        53.900

 106989117.225 9  83368247.869 8  20359353.391    20359362.598
        54.800          51.800    20359362.477    79894595.803 9  20359361.586
        55.000

 116838028.102 7  91042643.783 7  22233540.508    22233550.703
        46.600          45.600    22233550.328    87249194.897 8  22233550.898
        51.600

 126643566.574 6  98683358.877 6  24099481.102    24099493.047
        38.000          40.800    24099492.195    94571551.276 7  24099492.504
        43.300

 124552363.968 6  97053802.14443  23701520.141    23701526.984
        37.600          19.900


 21  7 19  0 43 30.0000000  0  9G23G18G22G08G10G32G27G24G21
 121013156.637 7  94295995.799 7  23028027.609    23028035.883
        42.300          43.400    23028036.012    90367020.083 7  23028039.223
        47.100

 127160789.857 5  99086470.447 5  24197923.125
        32.300          34.200    24197928.066    94957913.728 6  24197933.953
        39.900

 131968601.204 5 102832689.10142  25112783.047    25112791.918
        35.000          16.300


 117169108.534 7  91300617.783 7  22296543.977    22296554.625
        47.100          46.600    22296554.883    87496419.618 8  22296553.500
        50.200

 111101606.359 8  86572715.347 8  21141922.406    21141932.281
        50.300          50.000    21141931.465    82965528.331 8  21141930.324
        53.600

 106976737.517 9  83358601.359 8  20356997.578    20357006.969
        54.900          52.400    20357006.895    79885351.216 9  20357005.672
        54.700

 116907793.532 7  91097006.433 7  22246816.477    22246826.809
        45.800          45.700    22246826.520    87301292.426 8  22246826.555
        50.900

 126698057.905 6  98725819.647 6  24109850.734    24109861.680
        37.500          38.600    24109860.734    94612242.827 7  24109861.832
        43.800

 124471299.145 6  96990634.78243  23686094.969    23686101.215
        38.600          20.900


 21  7 19  0 44  0.0000000  0  9G23G18G22G08G10G32G27G24G21
 121084130.176 6  94351299.798 7  23041533.453    23041542.371
        41.800          43.600    23041542.219    90420019.750 7  23041545.254
        46.800

 127260509.97814  99164173.601 5  24216894.797
        28.600          34.800    24216904.586    95032379.236 6  24216907.715
        37.500

 131891005.163 6 102772224.75142  25098017.766    25098026.262
        36.000          16.900


 117182625.343 7  91311150.324 7  22299116.414    22299126.859
        46.600          46.200    22299126.590    87506513.320 8  22299125.707
        50.700

 111133196.723 8  86597331.195 8  21147933.555    21147943.863
        49.200          50.200    21147943.215    82989118.533 8  21147941.418
        53.700

 106964860.687 9  83349346.691 8  20354737.578    20354746.855
        54.900          51.800    20354746.730    79876482.168 9  20354745.395
        54.800

 116977955.815 7  91151678.289 7  22260167.859    22260178.762
        45.800          46.200    22260178.402    87353686.296 8  22260178.066
        51.400

 126753057.007 6  98768676.049 6  24120315.047    24120327.070
        36.800          39.400    24120327.449    94653313.557 7  24120327.543
        42.700

 124390332.789 6  96927544.14543  23670688.273    23670694.063
        39.600          21.800


 21  7 19  0 44 30.0000000  0  8G23G22G08G10G32G27G24G21
 121155186.697 7  94406668.459 7  23055055.578    23055063.188
        42.200          42.200    23055062.371    90473081.386 7  23055066.789
        46.700

 131813443.483 5 102711787.20042  25083259.969    25083266.277
        35.400          16.300


 117196697.344 7  91322115.533 7  22301794.055    22301804.656
        46.700          46.400    22301804.848    87517021.623 8  22301803.852
        50.200

 111164968.276 8  86622088.250 8  21153980.523    21153989.785
        49.700          50.100    21153988.883    83012844.043 8  21153987.363
        53.400

 106953486.250 9  83340483.503 8  20352573.453    20352582.551
        54.800          51.300    20352582.164    79867988.273 9  20352580.914
        54.700

 117048512.071 7  91206657.148 7  22273594.422    22273605.160
        46.200          46.000    22273604.371    87406374.354 8  22273604.109
        50.700

 126808562.049 6  98811926.726 6  24130878.711    24130890.289
        38.700          40.100    24130889.848    94694762.104 7  24130889.992
        43.500

 124309466.227 6  96864531.26843  23655299.203    23655305.273
        39.200          20.600


 21  7 19  0 45  0.0000000  0  8G23G22G08G10G32G27G24G21
 121226325.967 6  94462101.640 7  23068592.164    23068600.609
        41.600          42.100    23068599.852    90526204.859 7  23068604.324
        46.800

 131735915.515 5 102651375.92142  25068506.461    25068512.570
        33.300          16.900


 117211323.458 7  91333512.481 7  22304577.156    22304587.707
        47.000          46.300    22304587.770    87527943.689 8  22304587.043
        50.500

 111196920.795 8  86646986.310 8  21160060.117    21160070.332
        49.500          50.100    21160069.387    83036704.677 8  21160067.844
        53.300

 106942613.743 9  83332011.430 8  20350504.047    20350513.594
        55.500          51.900    20350513.215    79859869.208 9  20350512.086
        54.800

 117119459.496 7  91261940.823 7  22287095.156    22287105.508
        46.800          45.200    22287105.438    87459354.525 8  22287104.855
        50.300

 126864571.401 6  98855570.373 6  24141537.883    24141549.422
        38.700          40.800    24141549.441    94736587.245 7  24141548.270
        43.400

 124228701.281 6  96801597.58143  23639928.094    23639936.086
        37.800          21.100


 21  7 19  0 45 30.0000000  0  9G23G22G08G10G31G32G27G24G21
 121297547.274 6  94517598.685 6  23082144.625    23082153.117
        40.900          41.400    23082152.715    90579389.531 7  23082157.238
        47.600

 131658420.828 5 102590990.50442  25053758.438    25053765.496
        34.700          15.600


 117226502.269 7  91345340.131 7  22307465.898    22307476.234
        46.900          46.800    22307476.590    87539278.511 8  22307475.402
        50.400

 111229053.505 8  86672024.770 8  21166174.703    21166184.844
        49.600          50.300    21166184.094    83060699.856 8  21166182.754
        53.500

 131499226.55314                  25023458.961
        28.900


 106932242.139 9  83323929.649 8  20348530.297    20348539.879
        54.400          52.300    20348539.621    79852124.179 9  20348538.340
        55.000

 117190794.675 7  91317526.651 7  22300670.148    22300680.223
        46.700          44.800    22300679.512    87512624.272 8  22300679.629
        50.700

 126921082.860 6  98899605.242 6  24152292.047    24152302.266
        39.600          39.400    24152302.113    94778787.298 7  24152300.938
        43.200

 124148039.254 6  96738744.06243  23624579.016    23624586.668
        37.900          22.000


 21  7 19  0 46  0.0000000  0  9G23G18G22G08G10G32G27G24G21
 121368852.709 6  94573161.376 6  23095713.461    23095722.531
        40.500          41.700    23095722.227    90632637.072 7  23095726.543
        47.300

 127661036.16715  99476287.42315  24293116.797    24293126.672
        33.700          35.900    24293128.188    95331488.18816  24293131.277
        39.400

 131580961.957 5 102530633.16342  25039017.414    25039024.938
        34.600          17.400


 117242234.801 7  91357599.248 7  22310459.484    22310470.078
        46.300          47.000    22310470.430    87551026.819 8  22310469.059
        50.600

 111261368.623 8  86697205.378 8  21172324.055    21172334.281
        50.100          50.200    21172333.684    83084831.274 8  21172332.012
        53.500

 106922373.421 9  83316239.760 8  20346652.430    20346661.719
        54.500          51.800    20346661.805    79844754.703 9  20346660.434
        54.800

 117262517.358 7  91373414.397 7  22314317.938    22314327.875
        45.900          44.600    22314327.727    87566183.361 8  22314328.387
        50.500

 126978097.149 6  98944031.949 6  24163140.609    24163151.512
        38.400          39.800    24163151.727    94821362.880 7  24163152.500
        43.800

 124067483.941 6  96675973.72543  23609249.734    23609257.074
        38.300          21.100


 21  7 19  0 46 30.0000000  0 10G23G18G22G08G10G31G32G27G24G21
 121440239.450 6  94628787.369 6  23109299.227    23109306.629
        41.700          41.700    23109306.508    90685945.305 7  23109311.332
        47.400

 127761583.501 5  99554635.880 5  24312248.758    24312260.277
        34.700          34.600    24312259.309    95406572.089 6  24312265.074
        40.900

 131503536.587 5 102470301.78042  25024283.391    25024291.449
        34.200          15.600


 117258517.591 7  91370287.138 7  22313557.875    22313568.617
        46.100          47.000    22313569.133    87563186.033 8  22313567.719
        50.300

 111293863.291 8  86722525.895 8  21178508.039    21178517.738
        50.300          50.000    21178516.828    83109096.765 8  21178515.266
        53.300

 131287419.52715 102301848.982 5  24983152.688
        30.100          33.000    24983162.090


 106913004.405 9  83308939.234 8  20344870.086    20344878.746
        54.600          51.800    20344878.617    79837758.368 9  20344877.387
        54.900

 117334621.990 7  91429599.785 7  22328039.430    22328049.703
        45.800          45.300    22328049.672    87620027.693 8  22328049.363
        50.200

 127035609.932 6  98988847.073 6  24174084.500    24174096.293
        37.000          40.600    24174096.633    94864310.725 7  24174096.887
        43.600

 123987034.603 6  96613285.96143  23593941.664    23593948.254
        39.200          22.000


 21  7 19  0 47  0.0000000  0 10G23G18G22G08G10G31G32G27G24G21
 121511708.875 6  94684477.793 7  23122899.438    23122907.789
        41.600          42.900    23122907.242    90739315.303 7  23122911.020
        47.200

 127862293.019 6  99633110.770 5  24331415.492    24331426.453
        37.000          33.700    24331423.305    95481777.176 6  24331428.184
        40.000

 131426146.21015 102409997.69352  25009557.906    25009564.883
        33.300          15.600


 117275351.731 7  91383404.632 7  22316761.539    22316772.109
        45.500          47.100    22316771.980    87575756.964 8  22316771.344
        50.900

 111326538.987 8  86747987.455 8  21184726.336    21184735.816
        49.500          49.900    21184735.059    83133497.430 8  21184733.172
        53.000

 131181339.579 5 102219189.498 5  24962966.516
        31.800          32.900    24962973.832


 106904136.227 9  83302028.978 8  20343181.938    20343191.270
        54.600          52.200    20343191.211    79831136.034 9  20343189.766
        54.800

 117407107.438 7  91486081.883 7  22341832.563    22341843.680
        45.900          46.300    22341843.770    87674156.385 8  22341843.176
        50.300

 127093621.043 6  99034050.500 6  24185123.461    24185135.395
        36.000          39.200    24185135.043    94907630.685 7  24185134.684
        43.100

 123906694.431 6  96550683.25143  23578653.195    23578659.922
        39.100          20.100


 21  7 19  0 47 30.0000000  0 10G23G18G22G08G10G31G32G27G24G21
 121583259.608 6  94740231.542 7  23136514.141    23136523.102
        40.500          42.500    23136522.613    90792745.981 7  23136526.820
        47.300

 127963162.125 6  99711709.949 6  24350609.164    24350621.105
        36.900          36.300    24350622.844    95557101.405 6  24350624.250
        41.700

 131348789.36115 102349719.63452  24994834.516    24994843.715
        30.500          14.800


 117292734.398 7  91396949.540 7  22320069.344    22320079.695
        46.600          46.500    22320080.254    87588737.508 8  22320079.320
        51.000

 111359394.210 8  86773588.927 8  21190977.719    21190987.809
        50.000          49.400    21190987.254    83158032.167 8  21190985.398
        53.000

 131075140.94714 102136437.094 5  24942751.289
        27.300          33.700    24942766.680


 106895767.100 9  83295507.576 8  20341589.523    20341598.719
        55.000          52.000    20341598.480    79824886.364 9  20341597.152
        54.700

 117479969.520 7  91542857.486 7  22355698.375    22355708.590
        45.600          45.900    22355708.242    87728566.341 8  22355708.152
        49.900

 127152127.503 6  99079639.927 6  24196256.938    24196267.531
        38.100          37.900    24196267.648    94951320.514 7  24196269.035
        43.900

 123826464.005 6  96488166.07443  23563385.594    23563392.801
        39.500          22.200


 21  7 19  0 48  0.0000000  0  8G23G18G08G10G32G27G24G21
 121654892.212 6  94796049.173 7  23150146.164    23150154.313
        40.700          42.600    23150154.309    90846237.844 7  23150158.500
        47.700

 128064190.309 6  99790433.095 4  24369835.445    24369845.094
        36.900          29.400    24369843.270    95632544.422 6  24369848.813
        40.500

 117310665.498 7  91410921.804 7  22323481.063    22323492.230
        45.800          47.500    22323492.406    87602127.577 8  22323491.406
        51.500

 111392429.711 8  86799330.865 8  21197263.805    21197273.949
        50.400          50.000    21197273.559    83182701.528 8  21197272.203
        53.400

 106887897.319 8  83289375.287 8  20340091.625    20340101.277
        53.700          52.300    20340101.121    79819009.587 9  20340099.641
        54.800

 117553206.434 7  91599925.161 7  22369634.102    22369645.332
        44.600          46.100    22369644.680    87783256.179 8  22369644.168
        49.600

 127211128.464 6  99125614.685 6  24207484.594    24207495.281
        36.100          37.300    24207494.805    94995379.657 7  24207497.504
        44.700

 123746346.208 6  96425736.65343  23548139.453    23548146.590
        40.900          22.200


 21  7 19  0 48 30.0000000  0  9G23G18G08G10G31G32G27G24G21
 121726604.753 6  94851929.034 7  23163792.195    23163801.578
        40.000          43.400    23163801.277    90899789.378 7  23163805.242
        47.600

 128165374.281 6  99869277.65115  24389090.531    24389098.051
        37.200          32.600    24389099.051    95708103.784 6  24389103.684
        38.600

 117329142.245 7  91425319.256 7  22326997.563    22327008.191
        45.800          47.100    22327008.500    87615925.128 8  22327007.566
        51.300

 111425643.486 8  86825211.724 8  21203585.297    21203594.617
        49.300          49.000    21203593.961    83207504.014 8  21203592.262
        53.100

 130862373.672 5 101970662.396 5  24902273.297
        34.800          31.300    24902281.668


 106880524.619 9  83283630.331 8  20338688.609    20338698.277
        54.300          51.900    20338698.188    79813504.003 9  20338696.695
        55.000

 117626813.409 7  91657281.225 7  22383641.180    22383652.320
        45.200          46.100    22383651.750    87838222.358 8  22383651.168
        49.300

 127270620.36416  99171971.976 6  24218805.398    24218817.145
        36.700          39.000    24218817.348    95039805.425 7  24218817.070
        44.800

 123666340.372 6  96363394.45343  23532915.664    23532922.180
        41.600          22.300


 21  7 19  0 49  0.0000000  0  9G23G18G08G10G31G32G27G24G21
 121798398.664 6  94907872.291 7  23177455.391    23177463.047
        41.200          42.600    23177462.504    90953401.689 7  23177466.703
        47.200

 128266714.463 6  99948243.766 5  24408373.758    24408383.895
        36.100          31.900    24408382.281    95783779.718 5  24408386.387
        35.700

 117348164.936 7  91440142.123 7  22330617.320    22330628.105
        45.000          45.800    22330628.004    87630130.370 8  22330627.273
        51.200

 111459037.010 8  86851232.645 8  21209939.266    21209949.316
        49.900          49.600    21209948.711    83232440.730 8  21209947.055
        53.200

 130755833.496 5 101887644.141 5  24881995.242
        34.200          32.700    24882007.742


 106873649.944 9  83278273.449 8  20337380.680    20337390.082
        54.100          52.200    20337389.852    79808370.331 9  20337388.449
        55.000

 117700789.255 7  91714924.709 7  22397718.563    22397729.805
        45.900          46.100    22397729.328    87893464.022 8  22397728.547
        49.400

 127330603.015 6  99218711.664 6  24230221.945    24230230.883
        37.600          37.400    24230230.559    95084597.574 7  24230231.191
        45.000

 123586450.207 6  96301142.41543  23517711.945    23517719.621
        41.600          22.900


 21  7 19  0 49 30.0000000  0 10G23G18G22G08G10G31G32G27G24G21
 121870272.553 6  94963877.880 7  23191132.563    23191140.359
        41.100          43.400    23191140.496    91007073.683 7  23191143.406
        46.200

 128368208.027 6 100027329.608 6  24427688.727    24427697.820
        37.800          39.100    24427698.902    95859570.223 6  24427702.559
        37.600

 131039696.006 5                  24936021.461
        32.600


 117367731.398 7  91455388.702 7  22334340.852    22334350.934
        44.700          46.200    22334351.281    87644741.669 8  22334350.438
        51.000

 111492608.855 8  86877392.510 8  21216328.336    21216337.594
        49.300          49.500    21216337.141    83257510.602 8  21216335.832
        53.200

 130649184.171 5 101804540.986 5  24861701.555    24861712.293
        33.400          33.300    24861712.605


 106867271.491 9  83273303.245 8  20336166.711    20336176.258
        54.200          52.100    20336176.016    79803607.212 9  20336174.586
        54.800

 117775129.886 7  91772852.413 7  22411864.844    22411876.535
        46.300          47.300    22411876.309    87948978.064 8  22411875.680
        49.600

 127391073.304 6  99265831.383 6  24241726.195    24241737.203
        36.500          37.200    24241737.348    95129753.929 7  24241739.789
        45.200

 123506675.976 6  96238980.70943  23502532.188    23502539.551
        41.600          22.900


 21  7 19  0 50  0.0000000  0 10G23G18G22G08G10G31G32G27G24G21
 121942226.398 6  95019945.775 7  23204824.422    23204832.883
        41.400          43.300    23204832.672    91060805.430 7  23204835.664
        46.500

 128469853.841 6 100106534.070 6  24447030.430    24447041.734
        38.100          41.100    24447041.871    95935474.406 6  24447045.008
        38.500

 130962508.737 5                  24921331.336
        34.300


 117387840.062 7  91471057.766 7  22338167.461    22338177.309
        45.000          45.500    22338177.473    87659757.864 8  22338176.953
        51.200

 111526359.146 8  86903691.430 8  21222750.820    21222760.027
        50.000          49.300    21222759.391    83282713.732 8  21222758.074
        53.200

 130542428.680 5 101721355.117 5  24841389.578    24841398.063
        34.300          33.200    24841398.277


 106861388.947 9  83268719.440 8  20335047.070    20335056.770
        54.200          51.700    20335056.730    79799214.409 9  20335055.250
        55.000

 117849832.701 7  91831062.341 7  22426080.320    22426091.910
        45.000          46.300    22426091.414    88004762.560 8  22426091.551
        49.900

 127452029.751 6  99313329.864 6  24253327.570    24253338.637
        38.300          39.600    24253338.348    95175273.327 7  24253339.031
        45.100

 123427020.099 6  96176911.23744  23487373.719    23487381.230
        41.900          24.500


 21  7 19  0 50 30.0000000  0 10G23G18G22G08G10G31G32G27G24G21
 122014261.770 6  95076077.212 7  23218531.313    23218540.684
        40.800          43.000    23218541.398    91114598.006 7  23218544.527
        47.000

 128571652.197 6 100185857.404 6  24466401.844    24466412.617
        36.700          38.600    24466410.383    96011492.536 6  24466415.680
        40.400

 130885357.288 5                  24906652.844
        35.400


 117408491.890 7  91487150.084 7  22342097.234    22342107.742
        45.000          46.000    22342107.852    87675179.661 8  22342107.027
        51.100

 111560289.410 8  86930130.602 8  21229206.914    21229216.855
        50.200          48.900    21229216.313    83308051.259 8  21229214.883
        53.200

 130435571.741 5 101638090.122 6  24821053.219    24821063.930
        30.300          36.300    24821064.855


 106856003.339 8  83264522.869 8  20334022.148    20334031.953
        53.000          52.200    20334031.813    79795192.692 9  20334030.512
        54.900

 117924896.425 7  91889553.511 7  22440365.547    22440375.836
        45.700          47.000    22440375.875    88060816.588 8  22440375.012
        49.300

 127513472.147 6  99361207.061 6  24265019.039    24265031.156
        36.800          39.700    24265030.848    95221155.625 7  24265030.309
        44.000

 123347485.989 6  96114936.64744  23472238.492    23472246.090
        41.400          24.600


 21  7 19  0 51  0.0000000  0 10G23G18G22G08G10G31G32G27G24G21
 122086377.319 6  95132271.132 7  23232255.289    23232263.969
        41.100          42.600    23232263.570    91168450.468 7  23232267.797
        47.400

 128673600.470 6 100265297.585 6  24485801.891    24485814.352
        36.900          41.100    24485813.117    96087622.708 7  24485817.945
        43.000

 130808240.603 5 101928502.27642  24891977.320    24891981.320
        34.800          14.800


 117429684.663 7  91503663.919 7  22346129.773    22346140.453
        44.700          46.300    22346140.707    87691005.412 8  22346140.238
        51.900

 111594398.327 8  86956708.962 8  21235697.406    21235707.578
        50.800          49.200    21235707.176    83333522.191 8  21235705.805
        53.200

 130328614.744 5 101554747.235 5  24800701.820    24800710.328
        33.100          35.600    24800710.148


 106851112.845 8  83260712.106 8  20333091.633    20333101.207
        53.200          51.800    20333101.441    79791540.711 9  20333100.133
        55.100

 118000317.137 7  91948322.843 7  22454717.383    22454728.207
        46.000          47.000    22454728.191    88117137.179 8  22454727.195
        49.600

 127575397.514 6  99409460.556 6  24276803.586    24276813.512
        37.000          39.000    24276813.102    95267398.541 7  24276813.469
        44.100

 123268073.958 6  96053057.20144  23457126.867    23457134.664
        41.600          26.200


 21  7 19  0 51 30.0000000  0 10G23G18G22G08G10G31G32G27G24G21
 122158573.923 7  95188528.197 7  23245994.078    23246002.105
        42.500          43.100    23246002.555    91222363.490 7  23246006.227
        47.300

 128775698.385 6 100344854.352 6  24505232.086    24505242.039
        36.900          39.500    24505241.797    96163864.629 7  24505245.988
        42.900

 130731158.856 5 101868438.59942  24877311.000    24877314.629
        32.900          13.900


 117451418.098 7  91520599.014 7  22350265.578    22350276.711
        44.300          47.100    22350277.289    87707234.903 8  22350275.816
        51.900

 111628686.837 8  86983427.274 8  21242222.969    21242232.242
        50.300          48.700    21242231.586    83359127.236 8  21242230.281
        53.000

 130221561.20315 101471329.153 6  24780325.633    24780338.934
        33.700          37.100    24780340.023


 106846717.921 8  83257287.485 8  20332255.570    20332264.910
        52.700          51.900    20332264.637    79788258.783 9  20332263.660
        55.200

 118076092.923 7  92007368.861 7  22469137.227    22469147.605
        46.400          46.400    22469147.465    88173722.947 8  22469146.684
        49.400

 127637805.064 6  99458089.735 6  24288680.156    24288690.805
        37.400          40.100    24288690.422    95314001.543 7  24288691.336
        44.300

 123188786.967 7  95991275.16444  23442040.086    23442046.938
        42.400          26.400


 21  7 19  0 52  0.0000000  0 10G23G18G22G08G10G31G32G27G24G21
 122230850.949 6  95244847.924 7  23259747.438    23259756.031
        41.300          42.800    23259755.383    91276336.538 7  23259758.867
        45.900

 128877944.043 5 100424526.206 6  24524689.125    24524699.020
        34.700          37.500    24524698.055    96240216.780 7  24524702.875
        44.200

 130654112.469 5 101808402.62742  24862643.969    24862652.641
        32.000          15.600


 117473689.949 7  91537953.712 7  22354503.594    22354514.719
        43.500          46.400    22354515.195    87723866.470 8  22354514.148
        51.500

 111663154.315 8  87010285.040 8  21248781.602    21248790.988
        49.400          49.200    21248790.695    83384865.936 8  21248789.371
        53.100

 130114413.628 6 101387837.668 5  24759939.438    24759949.746
        37.900          35.000    24759948.070


 106842817.354 9  83254248.076 8  20331513.289    20331522.699
        54.500          52.100    20331522.980    79785346.016 9  20331521.234
        55.300

 118152220.400 7  92066688.921 7  22483623.648    22483634.453
        45.800          47.000    22483634.086    88230571.310 8  22483633.418
        49.600

 127700692.305 6  99507092.754 6  24300645.914    24300657.434
        37.100          39.400    24300656.879    95360962.779 7  24300659.051
        45.400

 123109626.415 7  95929591.65044  23426975.977    23426982.445
        42.300          27.300


 21  7 19  0 52 30.0000000  0 10G23G18G22G08G10G31G32G27G24G21
 122303207.328 6  95301229.450 7  23273515.922    23273524.652
        40.900          43.000    23273524.320    91330368.847 7  23273527.535
        45.200

 128980334.954 5 100504311.232 6  24544171.172    24544183.098
        33.700          37.400    24544182.340    96316677.419 7  24544188.133
        44.200

 130577100.271 5 101748393.20242  24847990.180    24847997.914
        33.800          15.600


 117496498.647 7  91555726.706 7  22358844.211    22358855.246
        44.700          46.100    22358855.574    87740898.913 8  22358854.207
        50.800

 111697799.683 8  87037281.425 8  21255373.977    21255384.129
        50.200          49.100    21255383.301    83410737.458 8  21255382.469
        53.000

 130007173.779 5 101304274.376 5  24739531.992    24739542.258
        35.000          35.700    24739541.957


 106839409.545 8  83251592.663 8  20330864.977    20330874.164
        53.800          52.000    20330873.824    79782801.238 9  20330872.707
        55.300

 118228695.772 7  92126280.098 7  22498176.680    22498187.500
        46.200          47.200    22498187.039    88287679.506 8  22498186.344
        49.100

 127764056.489 6  99556467.413 6  24312705.563    24312714.203
        37.900          38.100    24312713.141    95408280.171 7  24312715.590
        45.800

 123030592.933 7  95868007.15144  23411936.336    23411943.094
        43.100          26.100


 21  7 19  0 53  0.0000000  0 10G23G18G22G08G10G31G32G27G24G21
 122375642.958 7  95357672.777 7  23287300.219    23287308.625
        42.000          42.900    23287308.996    91384460.363 7  23287312.777
        46.600

 129082870.29414 100584208.491 6  24563677.961    24563694.934
        26.400          38.100    24563696.156    96393245.655 7  24563699.793
        42.100

 130500122.389 5 101688410.48142  24833341.328    24833349.473
        32.300          14.800


 117519842.748 7  91573916.892 7  22363286.281    22363297.082
        43.800          45.000    22363296.836    87758331.185 8  22363296.363
        50.200

 111732623.016 8  87064416.472 8  21262001.578    21262010.977
        51.100          49.300    21262010.191    83436741.874 8  21262008.793
        52.900

 129899844.715 6 101220641.384 5  24719107.344    24719118.004
        37.300          34.300    24719119.156


 106836493.968 8  83249320.785 8  20330310.000    20330319.418
        52.200          51.900    20330319.398    79780624.023 9  20330317.898
        55.000

 118305516.320 7  92186140.214 7  22512794.305    22512805.777
        45.800          47.000    22512805.340    88345045.425 8  22512804.586
        49.300

 127827895.825 6  99606212.308 6  24324853.156    24324862.672
        39.200          38.200    24324862.938    95455952.364 7  24324863.918
        45.500

 122951688.422 7  95806523.15544  23396921.547    23396928.438
        43.000          25.500


 21  7 19  0 53 30.0000000  0 10G23G18G22G08G10G31G32G27G24G21
 122448158.329 6  95414178.215 7  23301100.469    23301108.582
        41.200          43.500    23301108.086    91438611.410 7  23301111.871
        46.800

 129185547.916 5 100664217.304 6  24583223.461
        31.600          36.200    24583235.098    96469920.757 6  24583238.055
        39.500

 130423180.439 5                  24818701.313
        34.400


 117543721.736 7  91592523.889 7  22367830.727    22367840.891
        44.700          45.800    22367841.465    87776162.875 8  22367840.133
        50.100

 111767624.679 8  87091690.504 8  21268661.828    21268671.340
        51.200          48.800    21268670.922    83462879.477 8  21268669.242
        52.700

 129792429.783 6 101136941.615 5  24698667.297    24698676.313
        38.000          34.500    24698676.262


 106834070.433 9  83247432.304 8  20329848.602    20329858.305
        54.100          52.400    20329858.109    79778814.230 9  20329857.016
        55.000

 118382679.530 7  92246267.338 7  22527478.297    22527489.914
        46.000          47.500    22527489.516    88402667.261 8  22527488.223
        49.300

 127892208.924 6  99656326.422 6  24337091.055    24337102.254
        38.800          38.900    24337101.234    95503978.339 7  24337103.359
        46.000

 122872915.578 7  95745141.74644  23381930.141    23381938.551
        42.600          25.800


 21  7 19  0 54  0.0000000  0 10G23G18G22G08G10G31G32G27G24G21
 122520751.262 6  95470744.105 7  23314913.188    23314922.840
        41.600          43.400    23314921.922    91492820.370 7  23314926.297
        46.500

 129288365.660 4 100744334.903 5  24602785.625
        29.400          33.600    24602798.883    96546700.094 6  24602802.648
        37.600

 130346271.599 5                  24804064.734
        35.400


 117568131.833 7  91611544.714 7  22372476.141    22372486.602
        44.100          45.400    22372486.246    87794391.169 8  22372485.102
        49.900

 111802802.585 8  87119101.835 8  21275356.000    21275365.867
        50.900          48.800    21275365.215    83489148.681 8  21275363.699
        53.100

 129684929.856 6 101053175.651 6  24678208.539    24678220.691
        36.800          37.100    24678220.809


 106832136.158 8  83245925.075 8  20329480.609    20329490.145
        52.300          52.000    20329490.008    79777369.810 9  20329488.836
        55.000

 118460180.582 7  92306657.712 7  22542226.172    22542237.313
        45.900          47.200    22542237.000    88460541.348 8  22542236.246
        49.300

 127956991.784 6  99706806.578 6  24349417.680    24349429.590
        37.600          39.900    24349429.563    95552355.148 7  24349429.945
        44.800

 122794273.935 7  95683862.59444  23366966.031    23366973.340
        43.300          25.900


 21  7 19  0 54 30.0000000  0 10G23G18G22G08G10G31G32G27G24G21
 122593423.964 7  95527372.126 7  23328742.758    23328752.070
        42.200          44.300    23328752.012    91547088.897 7  23328755.785
        46.700

 129391324.107 5 100824562.070 6  24622386.391
        33.700          36.700    24622393.219    96623584.399 6  24622395.238
        37.400

 130269398.360 5 101508627.72442  24789435.734    24789443.563
        35.200          17.400


 117593074.468 7  91630980.511 7  22377222.148    22377233.313
        44.900          46.400    22377233.813    87813017.142 8  22377231.648
        49.900

 111838158.982 8  87146652.258 8  21282084.227    21282094.008
        51.500          49.000    21282093.438    83515551.167 8  21282091.875
        53.400

 129577349.941 6 100969347.263 5  24657739.281    24657748.207
        38.900          34.900    24657747.113


 106830692.761 8  83244800.346 8  20329206.055    20329215.559
        53.100          51.700    20329215.516    79776291.955 9  20329214.242
        55.000

 118538018.893 7  92367310.906 7  22557038.078    22557049.500
        45.400          46.600    22557049.102    88518667.299 8  22557048.098
        49.700

 128022244.967 6  99757653.119 6  24361834.734    24361845.973
        37.400          37.500    24361845.809    95601083.100 7  24361848.000
        44.500

 122715767.602 7  95622688.85844  23352026.445    23352033.738
        43.000          27.800


 21  7 19  0 55  0.0000000  0 10G23G18G22G08G10G31G32G27G24G21
 122666176.394 7  95584062.290 7  23342587.766    23342596.695
        42.800          43.900    23342596.258    91601416.947 7  23342599.289
        46.100

 129494421.547 4 100904897.706 5  24641998.805
        29.100          32.600    24642009.781    96700572.659 5  24642013.969
        35.500

 130192560.881 5 101448754.43742  24774812.602    24774822.262
        34.100          16.900


 117618547.791 7  91650829.828 7  22382068.914    22382080.340
        43.700          45.900    22382079.922    87832039.416 8  22382079.508
        50.600

 111873693.821 8  87174341.751 8  21288846.047    21288856.137
        50.900          49.300    21288855.641    83542086.915 8  21288854.039
        53.100

 129469692.859 6 100885458.774 5  24637249.734    24637259.945
        38.400          34.400    24637259.492


 106829739.570 8  83244057.621 8  20329024.398    20329034.063
        52.200          51.800    20329034.043    79775580.159 9  20329032.859
        55.000

 118616191.541 7  92428224.621 7  22571915.266    22571925.398
        47.300          46.500    22571925.035    88577042.930 8  22571924.793
        49.600

 128087966.406 6  99808864.575 6  24374341.242    24374352.746
        38.600          38.200    24374352.508    95650160.748 7  24374353.820
        44.300

 122637398.439 7  95561621.99644  23337113.453    23337121.117
        44.000          27.400


 21  7 19  0 55 30.0000000  0  9G23G22G08G10G31G32G27G24G21
 122739008.038 7  95640814.144 7  23356447.930    23356455.406
        43.700          43.800    23356455.238    91655804.165 7  23356458.973
        46.400

 130115758.935 6 101388908.80142  24760198.492    24760206.793
        36.200          17.400


 117644550.297 7  91671091.495 7  22387018.281    22387028.039
        43.800          45.000    22387028.328    87851456.840 8  22387027.672
        50.100

 111909406.687 8  87202169.935 8  21295642.086    21295652.051
        51.300          49.600    21295651.227    83568755.600 8  21295649.410
        53.000

 129361961.364 6 100801512.333 5  24616749.969    24616760.320
        37.400          35.300    24616760.523


 106829275.424 8  83243695.955 8  20328935.984    20328945.746
        52.600          52.600    20328945.445    79775233.569 9  20328944.535
        55.200

 118694695.303 7  92489396.328 7  22586853.914    22586864.004
        46.700          46.700    22586863.844    88635665.802 8  22586863.426
        49.700

 128154153.747 6  99860439.108 6  24386935.648    24386948.465
        38.300          39.300    24386947.832    95699586.314 7  24386948.613
        43.400

 122559168.149 7  95500663.36644  23322227.188    23322234.113
        44.100          27.000


 21  7 19  0 56  0.0000000  0  9G23G22G08G10G31G32G27G24G21
 122811917.745 7  95697626.848 7  23370322.820    23370330.180
        44.700          44.200    23370329.828    91710249.667 8  23370333.750
        48.100

 130038991.993 5 101329090.46842  24745590.219    24745597.871
        35.700          17.800


 117671079.908 7  91691763.899 7  22392066.023    22392076.410
        44.100          45.000    22392077.035    87871267.897 8  22392076.008
        49.900

 111945296.452 8  87230135.982 8  21302471.445    21302481.383
        51.200          49.300    21302480.945    83595556.391 8  21302479.297
        52.700

 129254156.886 6 100717509.013 6  24596234.211    24596246.277
        37.900          36.800    24596246.777


 106829298.560 8  83243713.989 8  20328940.516    20328950.121
        52.100          52.100    20328949.813    79775250.859 9  20328948.828
        55.000

 118773526.202 7  92550822.944 7  22601855.148    22601865.270
        47.000          46.900    22601865.063    88694532.975 8  22601865.035
        49.800

 128220804.059 6  99912374.398 6  24399619.711    24399631.391
        38.500          38.400    24399630.547    95749357.654 6  24399630.605
        40.300

 122481077.583 7  95439813.59944  23307366.547    23307374.191
        44.000          28.000


 21  7 19  0 56 30.0000000  0 10G23G18G22G08G10G31G32G27G24G21
 122884905.629 7  95754500.512 7  23384210.203    23384219.637
        43.600          43.800    23384219.254    91764753.540 8  23384223.148
        48.800

 129804520.69115 101146540.16115  24701010.820
        31.500          33.700    24701021.707    96932146.62916  24701026.555
        36.900

 129962260.198 6 101269299.61342  24730988.938    24730996.570
        36.200          17.800


 117698134.634 7  91712845.460 7  22397214.602    22397224.691
        43.800          45.500    22397225.246    87891471.050 8  22397224.547
        50.000

 111981363.288 8  87258239.987 8  21309334.688    21309344.766
        50.400          49.400    21309344.598    83622489.395 8  21309342.699
        52.900

 129146282.879 6 100633451.525 6  24575706.563    24575719.219
        38.700          38.600    24575719.363


 106829808.388 8  83244111.255 8  20329037.469    20329047.129
        51.900          52.800    20329047.223    79775631.569 9  20329045.797
        55.000

 118852681.482 7  92612502.348 7  22616916.773    22616928.113
        46.200          45.800    22616927.477    88753642.374 8  22616927.809
        49.700

 128287915.515 6  99964669.029 6  24412391.234    24412401.477
        38.000          36.600    24412401.840    95799473.391 6  24412401.238
        39.500

 122403128.608 7  95379074.16044  23292534.430    23292540.117
        43.900          27.000


 21  7 19  0 57  0.0000000  0 10G23G18G22G08G10G31G32G27G24G21
 122957971.641 7  95811435.030 7  23398114.961    23398123.320
        44.300          44.200    23398122.793    91819315.769 8  23398127.488
        48.800

 129908156.419 5 101227295.082 5  24720734.773
        33.000          31.500    24720743.039    97009536.736 6  24720746.672
        37.100

 129885563.478 6 101209536.02743  24716395.078    24716401.855
        37.500          19.300


 117725713.845 7  91734335.729 7  22402462.914    22402473.336
        43.600          45.100    22402473.988    87912065.883 8  22402472.559
        49.800

 112017607.142 8  87286481.946 8  21316231.789    21316241.707
        51.600          49.100    21316241.113    83649554.602 8  21316239.672
        52.600

 129038341.871 6 100549341.800 6  24555167.602    24555178.363
        39.600          37.900    24555177.988


 106830804.085 8  83244887.137 8  20329226.711    20329236.746
        52.000          52.300    20329236.520    79776375.114 9  20329235.133
        54.900

 118932158.238 7  92674432.254 7  22632040.914    22632052.098
        46.300          46.300    22632051.918    88812991.869 8  22632051.223
        49.900

 128355486.135 6 100017321.441 6  24425248.734    24425260.145
        37.800          36.700    24425260.719    95849931.953 6  24425259.914
        41.400

 122325322.915 7  95318446.35844  23277727.805    23277734.324
        44.100          26.700


 21  7 19  0 57 30.0000000  0 10G23G18G22G08G10G31G32G27G24G21
 123031115.412 7  95868430.142 7  23412034.039    23412041.676
        44.500          42.900    23412041.078    91873936.068 8  23412045.945
        49.000

 130011922.692 5 101308151.898 5  24740479.688
        30.700          30.800    24740488.176    97087024.491 5  24740491.023
        33.400

 129808901.760 6 101149799.73742  24701807.102    24701813.395
        37.600          17.800


 117753815.466 7  91756233.085 7  22407809.438    22407821.039
        43.400          45.500    22407821.539    87933050.843 8  22407820.238
        50.000

 112054027.713 8  87314861.602 8  21323162.844    21323172.301
        51.700          49.800    21323171.477    83676751.768 8  21323170.113
        52.900

 128930336.810 6 100465182.166 5  24534614.305    24534623.605
        39.800          33.400    24534621.285


 106832284.620 8  83246040.795 8  20329508.383    20329518.539
        52.100          52.000    20329518.531    79777480.709 9  20329516.813
        54.900

 119011953.348 7  92736610.200 7  22647225.570    22647236.426
        46.000          46.100    22647236.578    88872579.068 8  22647235.922
        49.300

 128423513.668 6 100070329.913 6  24438194.734    24438205.352
        39.700          36.600    24438205.227    95900731.683 7  24438206.496
        42.800

 122247662.576 7  95257931.84444  23262948.602    23262955.359
        43.500          26.700


 21  7 19  0 58  0.0000000  0 10G23G18G22G08G10G31G32G27G24G21
 123104338.000 7  95925486.662 7  23425967.102    23425975.855
        44.500          43.000    23425974.754    91928615.211 8  23425980.051
        48.600

 130115819.86714 101389110.104 4  24760246.688
        25.900          28.300    24760261.723    97164609.507 5  24760263.672
        35.600

 129732276.817 6 101090092.06543  24687227.000    24687231.324
        38.700          18.600


 117782438.719 7  91778536.879 7  22413257.398    22413267.727
        44.100          44.500    22413267.910    87954425.309 8  22413267.391
        49.900

 112090626.109 8  87343379.815 8  21330126.883    21330137.070
        51.100          49.300    21330136.047    83704081.716 8  21330134.840
        53.200

 128822271.749 6 100380975.727 6  24514049.445    24514060.750
        38.300          37.300    24514060.453


 106834250.302 8  83247572.502 8  20329882.789    20329892.582
        53.700          52.500    20329892.422    79778948.585 9  20329890.906
        54.900

 119092064.945 7  92799034.787 7  22662470.742    22662481.617
        46.800          46.100    22662481.297    88932402.608 8  22662480.805
        49.600

 128491997.142 6 100123693.656 6  24451227.625    24451237.379
        37.900          36.600    24451237.285    95951871.930 7  24451239.078
        43.100

 122170150.335 7  95197532.71244  23248198.594    23248205.309
        43.600          27.700


 21  7 19  0 58 30.0000000  0 10G23G18G22G08G10G31G32G27G24G21
 123177638.144 7  95982603.632 7  23439916.555    23439924.172
        43.300          44.300    23439924.027    91983352.269 8  23439928.348
        48.400

 130219843.54514                  24780048.125
        26.400                                    97242289.801 6  24780059.777
        36.200

 129655687.021 6 101030411.74242  24672651.453    24672656.355
        38.600          16.900


 117811581.402 7  91801245.408 7  22418802.969    22418813.078
        44.700          44.700    22418813.344    87976187.670 8  22418812.711
        50.000

 112127401.109 8  87372035.641 8  21337125.250    21337134.688
        50.900          49.800    21337134.367    83731543.549 8  21337132.805
        53.000

 128714148.627 6 100296724.151 6  24493472.203    24493486.324
        37.000          38.000    24493486.336


 106836699.058 8  83249480.637 8  20330348.773    20330358.480
        52.300          52.600    20330358.316    79780777.214 9  20330356.973
        54.900

 119172488.925 7  92861702.757 7  22677774.602    22677785.719
        45.200          46.000    22677785.691    88992459.422 8  22677785.547
        50.000

 128560933.441 5 100177410.194 6  24464344.531    24464356.172
        35.200          38.100    24464356.371    96003350.292 7  24464356.707
        43.200

 122092786.936 7  95137249.56944  23233476.539    23233483.016
        43.900          25.900


 21  7 19  0 59  0.0000000  0 11G23G18G01G22G08G10G31G32G27G24G21
 123251015.048 7  96039780.377 7  23453879.875    23453887.820
        43.200          44.500    23453887.320    92038146.638 8  23453891.063
        48.200

 130323993.22914                  24799868.336
        26.800                                    97320063.764 6  24799878.180
        37.600

 127945419.16115                  24347246.859
        32.900                                    95543843.78315  24347256.813
        33.300

 129579131.929 6 100970758.54942  24658081.391    24658087.918
        36.700          16.300


 117841241.010 7  91824356.748 7  22424446.813    22424457.301
        44.700          44.700    22424457.211    87998336.027 8  22424457.348
        49.700

 112164351.943 8  87400828.492 8  21344157.195    21344166.488
        51.700          49.200    21344165.570    83759136.699 8  21344164.363
        52.900

 128605969.363 6 100212428.682 6  24472887.102    24472898.949
        37.900          37.200    24472899.191


 106839629.370 8  83251763.990 8  20330906.313    20330915.922
        53.400          52.300    20330915.781    79782965.436 9  20330914.539
        55.000

 119253221.541 7  92924611.263 7  22693137.531    22693148.961
        45.700          45.900    22693149.039    89052746.710 8  22693148.023
        49.700

 128630319.686 5 100231477.364 6  24477548.250    24477560.629
        35.700          39.400    24477560.590    96055164.598 7  24477559.398
        43.200

 122015574.010 7  95077083.67844  23218784.156    23218790.398
        45.700          27.600


 21  7 19  0 59 30.0000000  0 11G23G18G01G22G08G10G31G32G27G24G21
 123324469.507 7  96097017.528 7  23467857.828    23467865.848
        43.100          44.500    23467864.996    92092998.921 7  23467868.859
        47.100

 130428267.54014 101632557.09415  24819721.055
        27.300          31.800    24819722.180    97397930.974 6  24819722.793
        38.100

 127839810.23315  99615654.83252  24327150.039    24327160.609
        32.500          15.600                    95464980.118 6  24327160.723
        36.800

 129502612.597 6 100911133.17242  24643520.414    24643527.012
        36.100          16.900


 117871417.390 7  91847870.783 7  22430189.828    22430200.387
        44.900          45.800    22430200.520    88020870.293 8  22430198.930
        49.200

 112201479.491 8  87429759.031 8  21351221.789    21351231.367
        51.100          49.300    21351231.105    83786861.808 8  21351229.500
        52.900

 128497737.778 6 100128092.585 6  24452292.711    24452303.309
        39.200          36.500    24452302.574


 106843041.244 8  83254422.601 8  20331555.578    20331565.324
        52.100          52.100    20331565.129    79785513.266 9  20331563.824
        55.100

 119334260.817 7  92987758.710 7  22708558.742    22708570.234
        46.100          45.600    22708569.570    89113263.030 8  22708569.438
        49.600

 128700154.746 6 100285894.210 6  24490837.305    24490849.430
        36.200          39.400    24490849.367    96107314.120 7  24490850.504
        43.500

 121938513.483 7  95017036.51545  23204120.664    23204126.559
        45.800          30.000


 21  7 19  1  0  0.0000000  0 10G23G01G22G08G10G31G32G27G24G21
 123398002.433 7  96154315.887 7  23481849.836    23481858.426
        43.400          43.900    23481857.273    92147909.828 7  23481862.242
        47.600

 127734251.92115  99533401.76652  24307060.211    24307073.402
        32.300          15.600                    95386154.198 6  24307073.082
        38.700

 129426130.166 6 100851536.58542  24628966.180    24628973.215
        36.900          16.300


 117902109.355 7  91871786.556 7  22436030.672    22436040.762
        45.200          45.200    22436040.188    88043789.571 8  22436039.633
        49.600

 112238784.690 8  87458828.030 8  21358320.727    21358330.355
        51.000          49.400    21358329.703    83814719.577 8  21358328.500
        53.500

 128389457.499 6 100043718.499 6  24431687.531    24431699.492
        37.600          38.400    24431697.832


 106846934.752 8  83257456.513 8  20332296.758    20332306.234
        52.500          52.400    20332306.098    79788420.772 9  20332304.789
        55.100

 119415604.766 7  93051143.526 7  22724038.938    22724049.188
        46.300          45.800    22724049.262    89174006.827 8  22724048.527
        49.900

 128770437.408 6 100340659.899 6  24504211.211    24504224.094
        36.100          38.700    24504223.438    96159797.909 6  24504223.207
        41.200

 121861608.816 7  94957110.82845  23189485.953    23189492.055
        45.400          30.400


 21  7 19  1  0 30.0000000  0 10G23G01G22G08G10G31G32G27G24G21
 123471612.029 7  96211673.961 7  23495858.422    23495866.484
        43.000          44.700    23495866.137    92202878.000 7  23495869.559
        46.700

 127628744.56014                  24286981.883
        28.900                                    95307366.355 6  24286995.934
        38.500

 129349683.247 6 100791967.66743  24614420.500    24614426.668
        38.700          19.000


 117933313.948 7  91896101.815 7  22441967.313    22441978.742
        44.100          45.100    22441978.586    88067091.680 8  22441977.832
        49.500

 112276265.858 8  87488034.110 8  21365453.156    21365462.672
        50.700          48.500    21365461.605    83842708.739 8  21365460.594
        52.900

 128281130.151 6  99959307.741 6  24411073.508    24411085.988
        40.300          37.200    24411085.668


 106851307.284 8  83260863.675 8  20333129.156    20333138.238
        53.000          52.000    20333138.098    79791685.970 9  20333136.926
        55.100

 119497248.665 7  93114762.111 7  22739575.070    22739585.066
        45.800          44.500    22739584.969    89234974.626 8  22739584.617
        49.100

 128841163.905 6 100395771.458 6  24517671.352    24517681.988
        36.600          37.700    24517682.891    96212613.130 6  24517681.352
        40.900

 121784859.967 7  94897306.53245  23174881.930    23174887.395
        46.000          30.500


 21  7 19  1  1  0.0000000  0  9G23G22G08G10G31G32G27G24G21
 123545298.617 7  96269092.053 7  23509879.375    23509887.836
        42.800          43.500    23509887.223    92257903.656 7  23509892.277
        47.500

 129273272.123 6 100732426.62243  24599878.602    24599885.199
        38.300          19.000


 117965030.003 7  91920815.595 7  22448003.211    22448013.688
        43.900          45.100    22448013.410    88090775.701 8  22448013.563
        50.100

 112313923.277 8  87517377.533 8  21372619.125    21372628.430
        50.800          48.700    21372627.703    83870829.527 8  21372626.387
        53.100

 128172758.892 6  99874862.716 6  24390450.898    24390462.777
        39.600          36.400    24390462.133


 106856158.259 8  83264643.667 8  20334051.813    20334061.348
        53.500          52.700    20334061.613    79795308.457 9  20334060.039
        55.100

 119579189.886 7  93178612.356 7  22755167.938    22755178.281
        45.500          45.000    22755178.289    89296164.441 8  22755177.563
        49.300

 128912332.582 5 100451227.514 6  24531214.539    24531224.863
        35.400          36.700    24531224.316    96265758.533 7  24531226.730
        42.000

 121708269.347 7  94837625.55545  23160305.664    23160312.914
        45.100          30.900


 21  7 19  1  1 30.0000000  0  9G23G22G08G10G31G32G27G24G21
 123619062.284 7  96326570.197 7  23523916.211    23523925.426
        42.200          44.000    23523924.832    92312986.848 7  23523928.930
        47.800

 129196897.353 6 100672913.89443  24585343.516    24585351.793
        37.600          20.100


 117997255.552 7  91945926.380 7  22454135.852    22454145.664
        44.300          44.800    22454145.918    88114840.190 8  22454146.387
        50.400

 112351757.103 8  87546858.444 8  21379818.656    21379828.352
        49.800          49.600    21379827.898    83899082.055 8  21379826.336
        52.800

 128064346.808 6  99790385.926 6  24369821.648    24369833.297
        39.100          38.200    24369831.453


 106861486.907 8  83268795.872 8  20335065.719    20335075.520
        53.400          53.000    20335075.453    79799287.654 9  20335074.109
        55.100

 119661425.626 7  93242692.110 7  22770815.789    22770826.711
        45.100          44.100    22770826.270    89357574.202 8  22770826.777
        49.100

 128983941.330 5 100507026.506 6  24544837.797    24544852.215
        33.200          37.500    24544852.141    96319232.568 7  24544853.391
        42.300

 121631838.994 7  94778069.46145  23145761.867    23145768.699
        46.300          31.800


 21  7 19  1  2  0.0000000  0 10G23G01G22G08G10G31G32G27G24G21
 123692902.988 6  96384108.338 7  23537966.844    23537976.813
        40.900          43.000    23537975.820    92368127.581 7  23537979.594
        47.200

 127312802.133 5  99204791.66352  24226816.172    24226824.434
        30.700          15.600                    95071248.86615  24226823.266
        30.900

 129120559.087 6 100613429.64343  24570816.383    24570825.465
        37.800          18.600


 118029989.304 7  91971433.163 7  22460365.313    22460375.184
        44.700          45.400    22460375.664    88139284.192 8  22460375.098
        50.100

 112389767.377 8  87576476.807 8  21387051.641    21387061.555
        49.900          49.700    21387061.039    83927466.321 8  21387059.621
        53.100

 127955897.354 6  99705879.999 6  24349184.086    24349193.129
        38.300          36.000    24349192.609


 106867292.322 8  83273319.561 8  20336170.398    20336180.176
        52.800          52.100    20336180.059    79803622.865 9  20336178.910
        55.200

 119743952.936 7  93306999.093 7  22786519.211    22786531.449
        43.600          43.900    22786531.309    89419201.688 8  22786530.852
        48.600

 129055988.14415 100563166.847 6  24558550.688    24558562.785
        34.100          37.600    24558562.090    96373033.695 6  24558561.984
        41.600

 121555570.716 7  94718639.66345  23131249.109    23131255.676
        46.100          31.500


 21  7 19  1  2 30.0000000  0 10G23G01G22G08G10G31G32G27G24G21
 123766820.361 6  96441706.240 7  23552032.234    23552042.281
        41.400          43.500    23552042.031    92423325.578 7  23552045.223
        46.200

 127207521.61914  99122731.05015  24206782.891    24206790.961
        26.400          31.300    24206792.582    94992630.390 5  24206790.637
        33.700

 129044257.021 6 100553973.55242  24556298.898    24556304.492
        38.200          15.600


 118063228.858 7  91997334.069 7  22466690.586    22466700.434
        44.300          45.700    22466701.051    88164105.890 8  22466700.184
        49.800

 112427953.766 8  87606232.437 8  21394318.570    21394328.090
        49.600          49.300    21394327.344    83955982.122 8  21394326.238
        53.000

 127847412.786 6  99621346.756 6  24328538.961    24328549.676
        37.600          37.000    24328549.703


 106873573.240 8  83278213.787 8  20337365.656    20337375.313
        52.300          52.600    20337375.227    79808313.168 9  20337374.078
        55.300

 119826768.564 7  93371530.685 7  22802280.680    22802291.078
        43.800          44.900    22802291.449    89481044.468 8  22802290.641
        48.800

 129128470.501 6 100619646.552 6  24572343.352    24572355.621
        36.000          37.800    24572356.117    96427160.047 6  24572355.203
        41.800

 121479466.345 7  94659337.57445  23116766.617    23116773.059
        46.300          31.200


 21  7 19  1  3  0.0000000  0  9G23G22G08G10G31G32G27G24G21
 123840813.981 6  96499363.614 7  23566113.148    23566123.004
        40.900          43.600    23566122.805    92478580.567 7  23566126.488
        46.100

 128967991.423 6 100494545.91042  24541787.297    24541791.848
        37.700          16.900


 118096972.848 7  92023628.047 7  22473111.531    22473122.355
        44.700          45.700    22473122.223    88189304.271 8  22473120.914
        50.100

 112466315.994 8  87636125.085 8  21401618.445    21401628.109
        49.500          48.700    21401627.504    83984629.232 8  21401626.387
        53.200

 127738895.929 6  99536788.283 6  24307889.648    24307898.633
        39.400          37.500    24307899.008


 106880328.352 8  83283477.525 8  20338651.688    20338660.590
        52.700          52.100    20338660.559    79813357.575 9  20338659.500
        55.400

 119909869.140 7  93436284.346 7  22818094.273    22818104.730
        44.100          44.700    22818104.711    89543100.049 8  22818103.699
        48.400

 129201385.865 6 100676463.733 6  24586219.453    24586230.816
        37.800          37.300    24586229.965    96481609.836 6  24586230.016
        40.800

 121403527.216 7  94600164.24345  23102315.281    23102322.535
        46.100          31.500


 21  7 19  1  3 30.0000000  0  9G23G22G08G10G31G32G27G24G21
 123914884.279 7  96557080.703 7  23580209.055    23580218.613
        42.500          44.000    23580218.348    92533892.764 7  23580222.391
        47.600

 128891762.231 6 100435146.61442  24527277.914    24527284.945
        36.200          15.600


 118131219.652 7  92050313.860 7  22479628.102    22479639.445
        44.500          46.300    22479639.945    88214878.152 8  22479638.246
        50.000

 112504854.428 8  87666155.011 8  21408951.828    21408961.734
        50.500          49.100    21408960.984    84013407.921 8  21408959.699
        52.900

 127630350.223 6  99452207.351 6  24287234.141    24287244.398
        39.400          37.900    24287245.160


 106887557.025 8  83289110.263 8  20340027.047    20340036.184
        53.100          51.900    20340036.164    79818755.618 9  20340035.113
        55.300

 119993252.094 7  93501258.042 7  22833961.063    22833971.547
        44.500          43.600    22833971.465    89605366.489 8  22833971.336
        48.800

 129274732.530 6 100733616.931 6  24600177.195    24600188.418
        38.500          37.700    24600188.594    96536381.679 7  24600187.715
        42.000

 121327755.521 7  94541121.39345  23087897.359    23087903.551
        46.500          31.700


 21  7 19  1  4  0.0000000  0  9G23G22G08G10G31G32G27G24G21
 123989031.178 6  96614857.466 7  23594319.148    23594328.289
        40.700          43.200    23594328.121    92589262.148 7  23594332.148
        47.000

 128815569.908 6 100375775.98842  24512780.313    24512786.418
        36.600          17.800


 118165967.514 7  92077390.084 7  22486240.836    22486252.012
        44.800          45.800    22486251.418    88240826.182 8  22486250.816
        50.300

 112543569.026 8  87696322.210 8  21416319.273    21416328.641
        50.100          48.600    21416328.160    84042318.151 8  21416326.844
        52.900

 127521778.548 6  99367606.151 6  24266572.250    24266583.484
        37.300          37.500    24266583.414


 106895258.285 8  83295111.251 8  20341492.453    20341501.723
        53.100          52.300    20341501.477    79824506.560 9  20341500.680
        55.400

 120076914.367 7  93566449.395 7  22849880.523    22849892.363
        43.700          45.400    22849892.738    89667841.511 8  22849891.555
        48.400

 129348508.236 6 100791104.442 6  24614216.188    24614227.707
        37.100          38.100    24614226.879    96591473.856 7  24614226.055
        42.300

 121252153.411 7  94482210.67545  23073510.031    23073516.984
        46.400          31.500


 21  7 19  1  4 30.0000000  0  9G23G22G08G10G31G32G27G24G21
 124063254.518 6  96672693.795 7  23608442.328    23608452.352
        40.200          43.500    23608452.172    92644688.615 7  23608456.211
        46.700

 128739414.543 5 100316434.26742  24498285.914    24498294.629
        33.400          15.600


 118201214.229 7  92104854.995 7  22492948.688    22492959.000
        45.000          46.300    22492958.852    88267146.729 8  22492958.094
        50.400

 112582459.801 8  87726626.685 8  21423719.664    21423729.359
        50.300          49.200    21423729.102    84071359.940 8  21423727.883
        53.300

 127413183.845 6  99282987.046 6  24245906.602    24245918.379
        36.500          37.900    24245918.977


 106903430.986 8  83301479.593 8  20343047.563    20343057.070
        53.400          52.200    20343056.953    79830609.558 9  20343055.750
        55.300

 120160852.960 7  93631856.020 7  22865853.961    22865865.969
        43.800          44.300    22865865.227    89730522.876 8  22865865.008
        49.000

 129422710.676 6 100848924.516 6  24628335.414    24628347.074
        36.800          37.800    24628346.246    96646884.744 6  24628346.742
        41.300

 121176722.821 7  94423433.62645  23059155.508    23059163.137
        46.200          31.400


 21  7 19  1  5  0.0000000  0  9G23G22G08G10G31G32G27G24G21
 124137554.087 6  96730589.494 7  23622580.734    23622590.883
        39.000          43.000    23622590.594    92700172.020 7  23622594.336
        46.400

 128663296.364 5 100257121.47042  24483803.641    24483810.113
        33.700          14.800


 118236958.678 7  92132707.798 7  22499750.133    22499760.984
        45.200          46.600    22499761.039    88293838.976 8  22499759.918
        50.100

 112621526.649 8  87757068.373 8  21431153.820    21431164.145
        49.900          49.500    21431163.566    84100533.208 8  21431161.715
        52.900

 127304569.029 6  99198352.312 5  24225239.492    24225249.426
        37.300          35.700    24225247.891


 106912074.069 9  83308214.458 8  20344692.531    20344701.828
        54.200          52.200    20344701.609    79837063.800 9  20344700.418
        55.200

 120245064.707 7  93697475.503 7  22881879.586    22881890.734
        43.700          44.700    22881889.910    89793408.214 8  22881890.121
        48.400

 129497337.671 6 100907075.343 6  24642537.594    24642548.355
        37.900          37.500    24642547.859    96702612.625 6  24642548.297
        40.800

 121101465.616 7  94364791.67145  23044834.570    23044842.031
        46.000          31.000


 21  7 19  1  5 30.0000000  0  9G23G22G08G10G31G32G27G24G21
 124211930.012 6  96788544.702 7  23636735.422    23636744.207
        40.500          42.100    23636743.383    92755712.405 7  23636746.820
        45.800

 128587215.360 5 100197837.67942  24469324.594    24469331.996
        35.000          15.600


 118273198.566 7  92160946.635 7  22506646.148    22506657.262
        44.700          46.600    22506657.488    88320901.174 8  22506656.035
        50.100

 112660769.560 8  87787647.276 8  21438621.367    21438631.770
        49.800          49.400    21438631.012    84129837.971 8  21438629.469
        52.800

 127195937.201 6  99113704.247 5  24204568.273    24204576.121
        36.900          35.100    24204575.176


 106921186.430 9  83315315.009 8  20346426.422    20346435.793
        54.400          52.000    20346435.703    79843868.501 9  20346434.516
        55.200

 120329546.601 7  93763305.515 7  22897955.109    22897966.566
        43.100          44.500    22897966.227    89856495.289 8  22897966.164
        48.600

 129572386.895 6 100965555.245 6  24656817.242    24656828.902
        36.600          36.000    24656829.441    96758655.839 6  24656830.230
        39.900

 121026383.500 7  94306286.14445  23030547.438    23030554.285
        45.400          31.900


 21  7 19  1  6  0.0000000  0  9G23G22G08G10G31G32G27G24G21
 124286381.776 6  96846559.012 7  23650903.516    23650912.148
        40.700          42.300    23650911.969    92811309.460 7  23650915.012
        45.800

 128511171.305 5 100138582.62142  24454853.313    24454860.957
        35.400          16.300


 118309931.692 7  92189569.821 7  22513636.703    22513647.121
        44.300          46.900    22513647.051    88348331.712 8  22513646.129
        50.300

 112700188.343 8  87818363.183 8  21446122.844    21446132.625
        50.600          48.500    21446131.801    84159274.055 8  21446131.031
        53.000

 127087291.095 6  99029045.067 5  24183893.922    24183901.281
        37.600          34.900    24183900.680


 106930766.742 8  83322780.186 8  20348249.055    20348258.688
        53.300          51.900    20348258.590    79851022.627 9  20348257.691
        55.200

 120414295.354 7  93829343.443 7  22914083.320    22914094.086
        43.800          44.900    22914093.480    89919781.638 7  22914093.453
        47.800

 129647855.783 5 101024362.209 6  24671177.391    24671190.684
        33.800          36.000    24671190.293    96815012.503 6  24671190.414
        38.600

 120951478.188 7  94247918.40345  23016293.477    23016300.285
        46.300          32.200


 21  7 19  1  6 30.0000000  0  9G23G22G08G10G31G32G27G24G21
 124360909.372 6  96904632.473 6  23665085.547    23665094.316
        40.000          41.400    23665093.996    92866963.152 7  23665097.945
        47.000

 128435164.727 6 100079356.82643  24440391.352    24440398.031
        37.100          19.000


 118347156.384 7  92218576.056 7  22520719.727    22520730.941
        43.800          47.000    22520731.316    88376129.342 8  22520730.184
        50.300

 112739782.903 8  87849216.072 8  21453656.797    21453667.203
        49.500          48.500    21453666.809    84188841.400 8  21453665.523
        53.200

 126978633.741 6  98944377.186 6  24163215.891    24163225.363
        38.000          36.300    24163225.246


 106940813.873 8  83330609.119 8  20350160.547    20350170.797
        53.900          51.100    20350170.707    79858525.358 9  20350169.535
        55.300

 120499307.925 7  93895586.954 7  22930260.594    22930271.949
        43.800          44.300    22930271.492    89983264.992 7  22930270.238
        47.600

 129723742.190 6 101083494.397 5  24685621.453    24685632.223
        36.000          35.600    24685631.852    96871680.870 6  24685631.449
        40.000

 120876751.634 7  94189689.95645  23002073.648    23002080.516
        45.800          31.900


 21  7 19  1  7  0.0000000  0 10G23G18G22G08G10G31G32G27G24G21
 124435512.147 6  96962764.463 6  23679281.750    23679290.379
        38.500          40.500    23679289.535    92922672.958 7  23679294.797
        47.800

 132006422.109 5 102862221.396 6  25120006.063    25120016.031
        33.500          36.800    25120012.941    98576291.596 6  25120016.973
        39.300

 128359195.064 6 100020159.74843  24425933.719    24425941.699
        36.100          19.300


 118384870.475 7  92247963.622 7  22527897.164    22527907.699
        44.400          47.200    22527907.523    88404292.415 8  22527906.762
        50.100

 112779552.638 8  87880205.445 8  21461225.438    21461235.094
        49.900          48.800    21461234.645    84218539.570 8  21461233.453
        53.100

 126869967.438 6  98859702.293 6  24142538.203    24142547.133
        38.400          36.200    24142547.027


 106951326.061 8  83338800.445 8  20352161.742    20352171.270
        53.900          52.300    20352171.148    79866375.364 9  20352169.793
        55.100

 120584580.607 7  93962033.141 7  22946487.219    22946498.773
        43.700          45.400    22946498.680    90046942.558 7  22946497.508
        47.800

 129800043.043 6 101142949.585 5  24700140.313    24700150.633
        37.100          34.700    24700149.785    96928658.733 7  24700152.660
        42.200

 120802205.332 7  94131601.95945  22987887.086    22987894.656
        45.900          32.200


 21  7 19  1  7 30.0000000  0 10G23G18G22G08G10G31G32G27G24G21
 124510190.423 6  97020955.247 6  23693491.789    23693501.066
        36.500          41.400    23693501.668    92978439.109 7  23693504.668
        46.100

 132112482.690 5 102944865.957 6  25140185.656    25140197.043
        32.500          36.200    25140195.770    98655492.585 6  25140199.660
        39.600

 128283263.182 6  99960992.08543  24411486.781    24411491.723
        36.700          19.000


 118423072.092 7  92277731.071 7  22535165.531    22535177.477
        43.800          47.100    22535177.023    88432819.559 8  22535175.973
        49.900

 112819498.017 8  87911331.713 8  21468826.102    21468836.641
        48.800          49.100    21468836.125    84248368.906 8  21468834.656
        52.900

 126761295.544 6  98775023.033 6  24121855.969    24121866.996
        38.200          36.100    24121867.012


 106962302.616 8  83347353.600 8  20354250.883    20354260.059
        53.400          52.000    20354259.875    79874572.156 9  20354258.371
        55.000

 120670110.723 7  94028679.937 7  22962763.133    22962774.691
        43.800          45.300    22962774.078    90110812.388 7  22962773.719
        47.800

 129876756.414 6 101202726.253 6  24714737.438    24714749.648
        37.500          36.900    24714749.262    96985944.656 7  24714751.246
        43.000

 120727841.230 7  94073655.93245  22973736.375    22973743.277
        45.800          31.900


 21  7 19  1  8  0.0000000  0 10G23G18G22G08G10G31G32G27G24G21
 124584944.643 6  97079205.228 6  23707715.750    23707726.652
        36.600          40.500    23707726.449    93034262.040 7  23707729.672
        45.300

 132218641.944 5 103027587.460 5  25160383.703    25160397.137
        31.800          35.600    25160396.676    98734767.364 6  25160401.602
        40.600

 128207369.266 6  99901854.02443  24397043.547    24397049.738
        36.700          19.300


 118461759.981 7  92307877.468 7  22542527.109    22542539.863
        43.500          47.500    22542539.723    88461709.827 8  22542538.039
        49.700

 112859619.582 8  87942595.262 8  21476461.664    21476471.898
        48.800          49.600    21476471.250    84278329.798 8  21476469.387
        52.900

 126652621.961 6  98690342.506 5  24101177.375    24101186.809
        39.800          35.500    24101185.566


 106973742.950 8  83356268.143 8  20356427.281    20356436.840
        52.800          51.900    20356437.000    79883115.257 9  20356435.426
        55.000

 120755895.851 7  94095525.444 7  22979087.984    22979098.551
        43.000          44.300    22979098.012    90174872.646 8  22979098.465
        48.100

 129953880.696 6 101262822.999 6  24729415.117    24729426.258
        37.300          38.000    24729426.270    97043537.422 6  24729425.676
        41.800

 120653662.061 7  94015853.98145  22959620.266    22959627.242
        44.900          31.800


 21  7 19  1  8 30.0000000  0 10G23G18G22G08G10G31G32G27G24G21
 124659774.077 6  97137513.833 6  23721956.297    23721966.652
        38.000          41.600    23721965.973    93090141.120 7  23721969.570
        45.500

 132324897.68015 103110384.028 5  25180606.617    25180616.691
        30.100          34.900    25180616.262    98814114.040 6  25180621.512
        39.800

 128131512.689 6  99842745.13343  24382608.242    24382615.070
        36.700          19.000


 118500931.346 7  92338400.589 7  22549981.578    22549993.574
        43.600          47.700    22549994.191    88490961.136 8  22549991.891
        49.900

 112899916.583 8  87973995.522 8  21484129.820    21484140.227
        50.000          49.600    21484139.578    84308421.701 8  21484137.570
        52.700

 126543949.044 6  98605662.347 6  24080497.617    24080507.547
        39.200          37.100    24080507.113


 106985645.159 8  83365542.593 8  20358692.328    20358701.652
        53.400          51.800    20358701.242    79892003.278 9  20358700.375
        55.000

 120841932.194 7  94162566.695 7  22995459.430    22995470.863
        43.300          44.900    22995470.582    90239120.492 7  22995470.539
        47.900

 130031412.761 5 101323237.630 6  24744166.438    24744179.555
        35.500          37.200    24744179.777    97101434.730 6  24744179.285
        41.100

 120579668.745 7  93958196.87845  22945539.578    22945547.500
        45.400          31.200


 21  7 19  1  9  0.0000000  0 10G23G18G22G08G10G31G32G27G24G21
 124734678.865 6  97195881.116 6  23736212.211    23736219.961
        39.200          40.400    23736219.012    93146076.417 7  23736223.621
        45.200

 132431248.339 5 103193254.563 6  25200844.297    25200854.223
        34.200          36.200    25200855.332    98893531.681 6  25200859.078
        39.700

 128055694.074 6  99783665.78543  24368180.961    24368187.613
        37.100          19.600


 118540584.120 7  92369298.797 7  22557528.375    22557539.523
        43.400          47.500    22557539.781    88520571.917 8  22557537.898
        50.700

 112940389.237 8  88005532.650 8  21491831.406    21491841.770
        49.300          49.300    21491841.375    84338644.775 8  21491839.219
        52.500

 126435279.96016  98520985.316 6  24059819.336    24059828.051
        38.300          36.400    24059827.859


 106998008.242 9  83375176.177 8  20361045.094    20361054.301
        54.100          52.200    20361054.164    79901235.451 9  20361053.105
        55.100

 120928216.795 7  94229801.401 7  23011880.438    23011890.832
        43.700          44.800    23011890.938    90303553.750 7  23011889.125
        47.500

 130109350.425 6 101383968.245 6  24759000.570    24759010.215
        37.300          37.100    24759010.215    97159634.879 7  24759012.680
        42.600

 120505863.779 7  93900686.53545  22931494.977    22931502.617
        46.000          32.400


 21  7 19  1  9 30.0000000  0 10G23G18G22G08G10G31G32G27G24G21
 124809658.992 6  97254307.139 6  23750480.961    23750488.359
        40.200          40.800    23750487.234    93202068.016 7  23750491.512
        44.900

 132537692.59515 103276198.050 6  25221103.383
        31.600          36.900    25221110.254    98973019.233 6  25221114.563
        39.500

 127979913.731 6  99724616.27342  24353760.945    24353766.000
        37.900          17.800


 118580716.715 7  92400570.914 7  22565164.289    22565176.219
        42.200          47.200    22565176.375    88550541.032 8  22565175.168
        50.500

 112981037.606 8  88037206.701 8  21499566.742    21499576.648
        48.700          49.200    21499575.848    84368999.072 8  21499574.672
        52.800

 126326617.484 6  98436313.368 6  24039141.273    24039150.730
        37.800          38.700    24039151.094


 107010831.043 8  83385167.967 8  20363485.070    20363494.590
        52.600          52.500    20363494.383    79910810.915 9  20363493.176
        55.000

 121014746.748 7  94297227.290 7  23028346.219    23028356.977
        43.700          45.200    23028356.469    90368170.198 8  23028355.641
        48.500

 130187691.386 5 101445013.183 6  24773907.141    24773918.598
        35.000          36.900    24773917.734    97218136.263 6  24773919.320
        41.700

 120432249.026 7  93843324.40645  22917487.391    22917493.961
        46.000          33.600


 21  7 19  1 10  0.0000000  0 10G23G18G22G08G10G31G32G27G24G21
 124884714.360 6  97312791.808 6  23764762.625    23764771.082
        39.000          41.000    23764770.535    93258115.814 7  23764774.523
        44.200

 132644228.88815 103359213.218 6  25241374.086
        30.100          38.100    25241384.828    99052575.469 6  25241387.629
        37.600

 127904171.813 6  99665596.64743  24339346.828    24339352.484
        38.300          19.600


 118621327.586 7  92432215.721 7  22572891.805    22572904.379
        42.200          47.300    22572904.246    88580867.301 8  22572903.344
        50.900

 113021861.751 8  88069017.717 8  21507336.297    21507345.402
        50.700          49.300    21507344.617    84399484.631 8  21507343.051
        52.700

 126217964.703 6  98351648.944 6  24018461.625    24018473.445
        36.000          37.800    24018474.652


 107024112.428 8  83395517.096 8  20366012.172    20366022.023
        53.200          52.000    20366021.945    79920728.841 9  20366020.645
        55.000

 121101518.918 7  94364841.890 7  23044858.398    23044869.102
        43.400          44.400    23044869.059    90432967.527 7  23044867.172
        47.500

 130266433.352 5 101506370.531 6  24788890.656    24788903.113
        34.600          37.700    24788901.773    97276937.070 7  24788902.254
        42.100

 120358826.316 7  93786111.91145  22903514.711    22903521.867
        45.200          33.500


 21  7 19  1 10 30.0000000  0 10G23G18G22G08G10G31G32G27G24G21
 124959845.288 6  97371335.318 6  23779058.078    23779068.020
        38.500          40.100    23779067.082    93314220.001 7  23779071.258
        44.000

 132750855.940 5 103442299.244 6  25261664.211    25261674.535
        33.700          38.400    25261674.387    99132199.475 6  25261678.941
        40.700

 127828468.795 6  99606607.37543  24324939.266    24324946.742
        38.100          19.600


 118662414.431 7  92464231.407 7  22580711.211    22580722.883
        42.400          46.400    22580722.883    88611549.011 8  22580722.387
        51.000

 113062862.047 8  88100966.005 8  21515137.383    21515147.758
        48.100          49.000    21515146.887    84430101.729 8  21515145.355
        52.600

 126109325.331 5  98266995.028 6  23997786.648    23997800.566
        35.400          36.900    23997800.867


 107037851.494 8  83406222.862 8  20368626.875    20368636.484
        53.800          52.400    20368636.145    79930988.531 9  20368635.027
        55.000

 121188530.614 7  94432643.186 7  23061415.891    23061426.051
        43.500          43.500    23061425.613    90497943.737 7  23061426.309
        47.800

 130345574.286 5 101568038.741 6  24803951.195    24803963.402
        32.300          38.200    24803962.930    97336035.769 7  24803963.203
        42.300

 120285598.193 7  93729051.04045  22889580.180    22889587.301
        45.100          33.100


 21  7 19  1 11  0.0000000  0 10G23G01G22G08G10G31G32G27G24G21
 125035051.836 6  97429937.768 6  23793370.469    23793379.367
        38.600          39.900    23793378.391    93370380.672 7  23793382.223
        44.100

 125428753.52014  97736899.523 6  23868332.984    23868343.598
        29.100          36.300    23868343.500    93664490.457 7  23868342.277
        43.100

 127752804.911 6  99547648.59443  24310543.000    24310548.391
        39.900          20.400


 118703975.324 7  92496616.481 7  22588620.313    22588631.250
        43.000          46.600    22588631.555    88642584.695 8  22588630.797
        50.600

 113104038.558 8  88133051.589 8  21522972.945    21522982.988
        48.400          49.600    21522982.441    84460850.418 8  21522980.551
        52.300

 126000702.658 5  98182354.113 6  23977115.789    23977129.656
        34.000          37.000    23977129.172


 107052047.087 8  83417284.362 8  20371328.797    20371337.758
        53.000          52.300    20371337.477    79941589.124 9  20371336.324
        55.000

 121275778.800 7  94500628.714 7  23078017.578    23078029.492
        42.000          44.200    23078029.211    90563096.519 7  23078029.063
        47.800

 130425111.855 4 101630016.010 6  24819084.031    24819098.668
        29.900          38.600    24819098.043    97395430.667 7  24819099.148
        42.900

 120212566.485 7  93672143.23745  22875683.125    22875690.004
        45.900          33.100


 21  7 19  1 11 30.0000000  0  9G23G22G08G10G31G32G27G24G21
 125110333.517 6  97488598.779 6  23807697.281    23807704.996
        39.800          40.300    23807704.668    93426597.455 7  23807708.023
        44.100

 127677180.093 6  99488720.24943  24296151.414    24296157.629
        37.900          19.300


 118746008.395 7  92529369.504 7  22596618.922    22596629.980
        43.100          46.000    22596630.445    88673972.999 8  22596629.180
        50.400

 113145391.014 8  88165274.257 8  21530843.055    21530851.879
        49.300          48.500    21530851.695    84491730.478 8  21530849.941
        52.400

 125892099.100 6  98097728.055 6  23956451.758    23956463.531
        36.600          37.100    23956463.344


 107066697.626 8  83428700.368 8  20374116.477    20374125.520
        52.700          52.300    20374125.301    79952529.472 9  20374124.387
        55.000

 121363260.108 6  94568795.873 7  23094665.320    23094676.910
        41.800          45.100    23094676.516    90628423.415 8  23094677.137
        48.200

 130505043.31814 101692300.237 6  24834295.492    24834308.668
        27.600          36.900    24834307.992    97455119.688 6  24834308.566
        40.300

 120139732.604 7  93615389.58745  22861822.773    22861829.793
        45.400          33.400


 21  7 19  1 12  0.0000000  0  9G23G22G08G10G31G32G27G24G21
 125185689.319 6  97547317.531 6  23822036.711    23822044.773
        39.900          41.000    23822044.441    93482869.615 7  23822047.402
        42.800

 127601593.570 6  99429821.74043  24281765.992    24281773.773
        36.800          20.100


 118788510.165 7  92562487.721 7  22604707.141    22604717.129
        42.900          44.800    22604717.367    88705711.290 8  22604717.223
        50.500

 113186918.407 8  88197633.247 8  21538744.680    21538754.457
        48.700          49.100    21538754.152    84522741.188 8  21538752.379
        52.700

 125783516.890 6  98013118.680 5  23935788.523    23935800.848
        36.300          35.800    23935799.090


 107081800.832 8  83440469.122 8  20376990.039    20376999.594
        53.700          52.100    20376999.352    79963807.842 9  20376998.387
        55.100

 121450970.379 7  94637141.484 7  23111356.539    23111367.891
        42.600          44.800    23111367.633    90693921.278 8  23111367.152
        48.700

 130585365.324 5 101754888.743 6  24849581.125    24849593.918
        30.700          36.400    24849593.262    97515100.370 6  24849592.148
        38.800

 120067097.859 7  93558791.09445  22848000.914    22848008.145
        45.800          32.900


 21  7 19  1 12 30.0000000  0 10G23G01G22G08G10G31G32G27G24G21
 125261119.713 6  97606094.376 6  23836390.078    23836398.379
        37.700          40.400    23836397.965    93539197.452 7  23836401.145
        42.700

 125117539.62315  97494402.42415  23809112.352    23809121.863
        31.000          35.100    23809121.309    93432097.38717  23809122.117
        43.900

 127526045.779 5  99370953.39843  24267388.313    24267397.164
        34.800          18.300


 118831479.077 7  92595969.945 7  22612883.898    22612894.680
        43.700          45.500    22612894.949    88737798.443 8  22612894.113
        50.500

 113228621.239 8  88230128.952 8  21546680.836    21546690.234
        49.100          49.000    21546689.742    84553882.893 8  21546688.313
        52.800

 125674959.584 6  97928528.652 6  23915132.727    23915142.965
        38.700          37.000    23915141.785


 107097355.901 9  83452589.949 8  20379950.141    20379959.594
        54.000          52.500    20379959.551    79975423.641 9  20379958.313
        55.000

 121538907.035 6  94705663.511 7  23128089.359    23128101.738
        41.700          45.000    23128101.781    90759588.178 8  23128101.207
        48.300

 130666075.812 5 101817780.021 5  24864939.445    24864951.211
        32.200          34.000    24864951.535    97575371.180 6  24864951.746
        38.100

 119994664.591 7  93502349.60645  22834217.945    22834224.516
        46.000          34.000


 21  7 19  1 13  0.0000000  0 10G23G01G22G08G10G31G32G27G24G21
 125336624.197 6  97664929.002 6  23850757.734    23850766.672
        37.100          40.500    23850767.152    93595580.615 7  23850771.223
        44.100

 125014011.03015  97413731.538 5  23789408.633    23789421.305
        32.500          34.600    23789420.574    93354787.840 7  23789421.535
        43.900

 127450536.785 6  99312115.33343  24253021.664    24253028.547
        36.600          19.900


 118874912.724 7  92629814.302 7  22621149.297    22621160.234
        42.700          45.900    22621160.988    88770232.597 8  22621159.715
        51.300

 113270499.187 8  88262761.104 8  21554649.016    21554659.500
        49.000          48.700    21554658.594    84585155.368 8  21554657.320
        52.700

 125566430.135 6  97843960.322 6  23894480.883    23894490.508
        39.400          37.500    23894490.066


 107113361.223 8  83465061.631 8  20382996.133    20383005.375
        53.100          52.300    20383005.496    79987375.674 9  20383004.125
        55.000

 121627066.665 7  94774359.260 7  23144866.867    23144877.902
        43.000          44.200    23144877.289    90825421.585 7  23144876.691
        47.800

 130747172.192 5 101880971.985 5  24880372.180    24880384.293
        33.100          35.300    24880384.160    97635930.118 6  24880383.684
        38.300

 119922433.996 7  93446066.03945  22820472.625    22820479.641
        46.000          33.800


 21  7 19  1 13 30.0000000  0 10G23G01G22G08G10G31G32G27G24G21
 125412203.843 6  97723822.176 6  23865140.992    23865149.316
        39.400          39.100    23865148.859    93652019.898 7  23865153.711
        44.200

 124910587.30314  97333145.248 6  23769727.219    23769742.313
        29.900          36.300    23769740.691    93277559.329 7  23769741.176
        43.700

 127375067.894 6  99253308.48243  24238660.883    24238667.430
        37.700          20.400


 118918809.868 7  92664019.873 7  22629501.953    22629513.422
        42.700          45.100    22629513.781    88803012.927 8  22629512.773
        50.800

 113312553.392 8  88295530.612 8  21562651.867    21562662.070
        49.300          48.700    21562661.738    84616559.475 8  21562660.512
        52.900

 125457932.362 6  97759416.706 6  23873835.438    23873843.922
        41.300          38.700    23873844.098


 107129816.585 8  83477883.983 8  20386127.203    20386136.594
        53.800          52.400    20386136.680    79999663.767 9  20386135.449
        55.000

 121715447.282 6  94843227.214 7  23161684.297    23161695.555
        41.600          44.500    23161695.668    90891420.012 8  23161695.262
        48.300

 130828652.913 5 101944463.461 6  24895876.836    24895890.469
        33.400          38.100    24895889.457    97696776.129 6  24895890.609
        40.400

 119850409.439 7  93389943.03045  22806766.281    22806773.629
        46.300          34.000


 21  7 19  1 14  0.0000000  0 10G23G01G22G08G10G31G32G27G24G21
 125487857.787 6  97782773.291 6  23879537.828    23879545.320
        39.200          40.700    23879546.109    93708514.661 7  23879549.523
        43.900

 124807286.16315  97252644.649 6  23750069.938
        31.600          38.000    23750082.344    93200412.904 7  23750081.949
        42.700

 127299638.587 6  99194532.42843  24224308.188    24224312.574
        39.000          20.600


 118963167.830 7  92698584.440 7  22637943.422    22637953.750
        43.300          44.600    22637954.137    88836137.321 8  22637954.156
        51.200

 113354783.098 8  88328436.877 8  21570687.055    21570698.215
        49.700          48.800    21570697.551    84648094.632 8  21570696.520
        52.900

 125349468.788 6  97674899.794 6  23853193.766    23853204.074
        39.000          38.000    23853203.754


 107146719.859 9  83491055.368 8  20389343.867    20389353.109
        54.000          52.100    20389352.754    80012286.351 9  20389352.055
        55.100

 121804044.920 7  94912264.259 7  23178544.508    23178555.723
        42.500          44.300    23178554.879    90957580.504 8  23178554.961
        48.500

 130910514.871 5 102008251.993 6  24911456.523    24911469.059
        33.000          39.500    24911469.027    97757906.801 7  24911468.434
        42.600

 119778592.227 7  93333981.56745  22793100.031    22793106.871
        46.300          33.800


 21  7 19  1 14 30.0000000  0 10G23G01G22G08G10G31G32G27G24G21
 125563586.604 6  97841782.708 6  23893947.492    23893957.074
        38.100          40.800    23893957.129    93765065.310 7  23893960.137
        42.900

 124704090.77015  97172231.981 6  23730434.773    23730445.867
        33.400          38.100    23730444.465    93123350.742 6  23730443.398
        41.200

 127224249.271 6  99135787.59943  24209961.891    24209966.758
        39.200          20.600


 119007984.617 7  92733506.598 7  22646471.500    22646482.043
        44.100          44.300    22646482.512    88869604.380 8  22646482.148
        50.500

 113397188.941 8  88361480.352 8  21578758.211    21578767.750
        49.800          48.500    21578767.180    84679761.310 8  21578765.754
        52.500

 125241043.044 6  97590412.270 6  23832560.602    23832570.957
        39.200          38.500    23832571.523


 107164070.341 8  83504575.233 8  20392645.359    20392654.926
        53.800          52.500    20392654.758    80025242.879 9  20392653.691
        55.000

 121892857.080 7  94981468.475 7  23195445.422    23195455.953
        42.000          44.800    23195455.645    91023901.204 8  23195455.621
        48.000

 130992756.163 5 102072336.057 6  24927106.875    24927117.992
        31.500          39.200    24927118.617    97819320.667 6  24927117.617
        41.800

 119706984.571 7  93278183.40945  22779473.977    22779480.695
        47.500          33.500


 21  7 19  1 15  0.0000000  0 10G23G01G22G08G10G31G32G27G24G21
 125639389.497 6  97900849.835 7  23908371.875    23908382.094
        38.600          42.500    23908382.227    93821671.314 7  23908384.770
        43.400

 124601009.46715  97091908.534 6  23710820.125    23710829.156
        33.000          36.000    23710827.461    93046374.080 7  23710827.996
        42.700

 127148899.653 6  99077073.66743  24195622.742    24195628.227
        39.000          20.900


 119053257.717 7  92768784.280 7  22655087.102    22655097.645
        43.200          44.300    22655098.098    88903412.168 8  22655097.340
        51.200

 113439770.274 8  88394660.604 8  21586861.430    21586870.703
        50.300          49.300    21586869.922    84711559.035 8  21586868.527
        52.600

 125132657.856 6  97505956.359 6  23811936.031    23811946.645
        39.100          39.600    23811946.969


 107181865.961 8  83518441.944 8  20396032.148    20396041.441
        53.900          52.100    20396041.203    80038531.809 9  20396040.117
        55.200

 121981880.005 7  95050836.937 7  23212385.555    23212396.387
        42.200          44.100    23212396.055    91090379.300 8  23212395.977
        48.700

 131075373.58815 102136713.289 6  24942828.391    24942839.637
        32.200          39.100    24942839.523    97881015.504 6  24942839.020
        40.000

 119635588.028 7  93222549.76245  22765887.023    22765894.277
        45.900          33.600


 21  7 19  1 15 30.0000000  0 10G23G01G22G08G10G31G32G27G24G21
 125715266.274 6  97959974.526 7  23922811.711    23922820.945
        40.000          42.500    23922820.609    93878332.479 7  23922823.855
        43.700

 124498044.17715  97011675.942 5  23691223.750    23691235.406
        31.600          35.400    23691234.156    92969484.547 7  23691234.410
        42.300

 127073589.758 6  99018390.68743  24181291.078    24181297.008
        38.800          20.600


 119098984.629 7  92804415.638 7  22663788.031    22663799.297
        43.400          44.300    22663799.641    88937558.855 8  22663799.043
        50.500

 113482526.940 8  88427977.471 8  21594996.961    21595007.234
        50.200          48.500    21595006.738    84743487.699 8  21595005.215
        52.800

 125024315.857 6  97421534.126 6  23791317.195    23791329.730
        38.600          39.900    23791329.398


 107200105.199 9  83532654.340 8  20399502.766    20399512.191
        54.400          52.000    20399512.184    80052152.021 9  20399511.043
        55.200

 122071110.385 7  95120367.064 7  23229365.906    23229377.418
        42.100          44.700    23229376.699    91157012.307 8  23229376.270
        48.200

 131158364.57915 102201381.499 6  24958620.516    24958632.254
        33.300          38.900    24958632.125    97942989.232 6  24958632.809
        41.400

 119564403.982 7  93167081.69545  22752340.758    22752348.371
        46.000          33.500


 21  7 19  1 16  0.0000000  0 10G23G01G22G08G10G31G32G27G24G21
 125791217.969 6  98019157.670 6  23937264.500    23937274.109
        41.100          41.600    23937274.016    93935049.651 7  23937277.426
        44.100

 124395198.70015  96931537.049 6  23671653.930    23671665.223
        33.500          36.200    23671663.762    92892684.775 7  23671664.180
        43.100

 126998320.964 6  98959739.73543  24166969.453    24166973.684
        39.400          21.800


 119145164.513 7  92840399.906 7  22672577.352    22672587.898
        43.800          45.600    22672588.270    88972043.797 8  22672586.809
        50.700

 113525460.187 8  88461431.936 8  21603166.711    21603177.023
        48.900          48.800    21603176.258    84775548.222 8  21603175.285
        53.000

 124916021.364 6  97337148.863 6  23770709.781    23770720.832
        38.600          36.600    23770719.301


 107218787.886 8  83547212.289 8  20403057.813    20403067.223
        53.900          52.100    20403067.211    80066103.382 9  20403066.180
        55.400

 122160546.413 6  95190057.402 7  23246383.898    23246395.688
        41.800          44.500    23246395.316    91223798.888 8  23246395.488
        48.500

 131241727.70915 102266339.740 6  24974484.352    24974496.004
        31.900          37.000    24974495.527    98005240.862 6  24974495.840
        41.200

 119493435.641 7  93111781.70945  22738835.930    22738843.504
        46.300          33.200


 21  7 19  1 16 30.0000000  0 10G23G01G22G08G10G31G32G27G24G21
 125867244.336 6  98078398.937 6  23951732.781    23951740.680
        40.200          39.200    23951739.891    93991822.526 7  23951744.805
        45.000

 124292475.790 5  96851493.295 6  23652106.008    23652117.664
        34.400          37.100    23652117.074    92815976.213 7  23652116.762
        42.300

 126923093.307 6  98901120.82643  24152653.203    24152658.773
        38.800          21.800


 119191794.624 7  92876735.020 7  22681450.211    22681460.738
        43.900          43.700    22681460.883    89006864.932 8  22681460.168
        50.800

 113568569.707 8  88495023.748 8  21611370.867    21611380.090
        49.300          48.200    21611379.594    84807740.373 8  21611378.504
        52.900

 124807777.010 6  97252802.753 6  23750112.953    23750122.133
        40.500          36.500    23750120.785


 107237912.307 9  83562114.423 8  20406697.406    20406706.566
        54.400          51.900    20406706.340    80080384.606 9  20406705.273
        55.200

 122250184.510 7  95259905.204 7  23263442.273    23263453.621
        42.900          45.100    23263453.367    91290736.347 8  23263452.621
        48.300

 131325460.186 5 102331585.772 6  24990417.406    24990428.695
        34.100          36.400    24990428.027    98067768.303 6  24990429.078
        40.900

 119422684.694 7  93056651.10145  22725373.297    22725380.133
        46.700          34.500


 21  7 19  1 17  0.0000000  0 10G23G01G22G08G10G31G32G27G24G21
 125943344.295 6  98137697.613 6  23966213.898    23966222.141
        39.900          39.900    23966221.633    94048650.371 7  23966225.453
        44.300

 124189876.526 5  96771545.825 5  23632581.984    23632594.004
        34.400          35.800    23632593.398    92739359.909 6  23632592.262
        41.800

 126847905.914 6  98842533.27143  24138345.000    24138350.352
        38.300          19.900


 119238871.704 7  92913418.447 7  22690408.648    22690418.684
        43.700          43.900    22690418.793    89042019.874 8  22690418.891
        50.200

 113611854.602 8  88528752.224 8  21619608.234    21619617.574
        49.700          48.700    21619616.852    84840063.477 8  21619615.410
        52.700

 124699585.395 6  97168497.661 6  23729526.305    23729534.414
        40.900          39.100    23729534.734


 107257476.133 8  83577358.975 8  20410420.164    20410429.508
        52.100          52.600    20410429.199    80094993.956 9  20410428.191
        54.900

 122340020.708 7  95329907.361 7  23280536.500    23280548.012
        42.500          43.700    23280547.809    91357821.735 7  23280548.262
        47.900

 131409558.55715 102397117.028 6  25006418.164    25006432.039
        32.000          37.600    25006432.410    98130569.029 6  25006433.453
        41.100

 119352152.229 7  93001690.76745  22711951.914    22711958.449
        46.800          34.000


 21  7 19  1 17 30.0000000  0 10G23G01G22G08G10G31G32G27G24G21
 126019517.869 6  98197053.573 6  23980708.852    23980716.930
        38.000          40.900    23980717.184    94105533.125 7  23980721.410
        45.400

 124087403.236 5  96691696.584 5  23613082.133    23613093.668
        34.200          33.700    23613091.781    92662837.722 7  23613092.664
        42.000

 126772759.066 6  98783977.33843  24124045.109    24124051.336
        39.400          21.500


 119286393.702 7  92950448.524 7  22699450.789    22699462.590
        43.200          44.600    22699462.918    89077507.018 8  22699461.719
        50.200

 113655314.999 8  88562617.432 8  21627877.328    21627887.711
        48.200          48.900    21627887.348    84872517.651 8  21627885.891
        52.600

 124591449.513 6  97084236.064 6  23708949.367    23708956.957
        40.500          38.200    23708955.746


 107277478.019 8  83592944.857 8  20414226.063    20414235.797
        52.300          52.100    20414235.703    80109930.435 9  20414234.297
        54.800

 122430051.871 7  95400061.495 7  23297669.797    23297681.637
        42.400          45.500    23297681.430    91425052.748 8  23297681.020
        48.400

 131494020.487 5 102462931.483 5  25022494.289    25022504.637
        31.000          35.900    25022504.500    98193641.241 6  25022504.820
        40.800

 119281840.155 7  92946902.14145  22698571.281    22698578.293
        45.500          33.600


 21  7 19  1 18  0.0000000  0 10G23G01G22G08G10G31G32G27G24G21
 126095765.876 6  98256467.621 7  23995217.781    23995227.777
        37.500          42.600    23995226.988    94162471.554 7  23995230.777
        44.500

 123985059.204 5  96611948.03614  23593606.758    23593616.988
        34.800          29.000    23593616.969    92586412.076 6  23593616.539
        40.800

 126697653.832 6  98725453.87243  24109752.992    24109758.590
        39.100          21.700


 119334359.243 7  92987824.240 7  22708578.102    22708589.863
        43.100          44.500    22708590.086    89113325.389 8  22708589.324
        50.000

 113698951.924 8  88596620.241 8  21636181.914    21636191.570
        48.500          48.900    21636191.070    84905103.645 8  21636189.793
        52.600

 124483373.506 6  97000021.099 6  23688381.609    23688390.699
        39.900          39.200    23688390.348


 107297917.500 8  83608871.720 8  20418115.828    20418125.027
        52.100          51.500    20418125.109    80125193.674 9  20418123.848
        54.900

 122520275.980 6  95470365.888 7  23314838.992    23314850.273
        41.900          45.400    23314850.508    91492427.787 8  23314850.375
        48.400

 131578844.165 5 102529027.809 6  25038633.906    25038645.703
        31.500          37.300    25038645.902    98256983.584 7  25038646.188
        42.700

 119211751.254 7  92892287.44945  22685233.469    22685240.789
        45.100          33.400


 21  7 19  1 18 30.0000000  0 10G23G01G22G08G10G31G32G27G24G21
 126172088.053 6  98315939.345 7  24009741.547    24009751.250
        38.300          42.600    24009750.422    94219465.312 7  24009754.574
        45.200

 123882846.578 5  96532301.88614  23574156.438    23574165.902
        35.000          28.000    23574163.816    92510084.489 6  23574166.223
        40.100

 126622590.247 6  98666962.82843  24095469.156    24095474.637
        39.900          22.200


 119382765.508 7  93025543.364 7  22717791.422    22717801.715
        44.500          44.500    22717801.609    89149472.872 8  22717800.988
        49.900

 113742765.041 8  88630760.304 8  21644519.172    21644528.809
        51.000          48.700    21644528.184    84937821.216 8  21644526.898
        52.500

 124375360.364 6  96915855.104 6  23667826.469    23667835.527
        40.800          38.400    23667836.086


 107318792.775 9  83625138.164 8  20422088.117    20422097.473
        54.100          51.900    20422097.316    80140782.349 9  20422096.434
        54.800

 122610689.409 6  95540817.836 7  23332043.648    23332056.043
        41.600          45.900    23332055.961    91559944.218 8  23332055.469
        48.000

 131664026.897 5 102595403.966 5  25054844.695    25054854.906
        32.500          35.800    25054854.621    98320594.033 7  25054856.176
        42.800

 119141887.442 7  92837848.14645  22671939.117    22671946.344
        46.100          33.500


 21  7 19  1 19  0.0000000  0 10G23G01G22G08G10G31G32G27G24G21
 126248484.096 6  98375468.688 6  24024280.531    24024288.906
        39.900          41.800    24024287.797    94276514.232 7  24024292.211
        45.000

 123780767.488 5  96452759.728 5  23554731.164    23554741.613
        34.300          31.100    23554741.063    92433856.655 6  23554741.055
        38.900

 126547568.541 6  98608504.43143  24081191.891    24081198.344
        38.800          21.500


 119431610.053 7  93063603.992 7  22727085.086    22727096.414
        43.700          44.500    22727096.656    89185947.635 8  22727095.848
        50.100

 113786754.298 8  88665037.634 8  21652889.961    21652899.898
        50.300          48.600    21652899.301    84970670.306 8  21652897.625
        52.200

 124267412.714 6  96831740.157 6  23647286.883    23647293.707
        41.700          38.400    23647293.910


 107340102.322 8  83641743.003 8  20426143.453    20426152.594
        53.100          51.600    20426152.477    80156695.318 9  20426151.492
        55.000

 122701288.998 6  95611414.855 7  23349284.211    23349296.293
        41.700          45.800    23349296.438    91627599.699 7  23349295.348
        47.300

 131749565.91315 102662057.762 5  25071122.250    25071133.305
        30.500          35.600    25071133.750    98384470.580 6  25071133.727
        41.300

 119072250.408 7  92783585.54145  22658688.422    22658694.516
        46.300          34.400


 21  7 19  1 19 30.0000000  0 10G23G01G22G08G10G31G32G27G24G21
 126324953.657 6  98435055.283 7  24038832.492    24038840.094
        40.500          42.300    24038839.535    94333618.042 7  24038844.277
        45.100

 123678823.94715  96373323.23715  23535330.883    23535342.680
        32.500          30.100    23535340.492    92357730.063 6  23535341.219
        37.500

 126472588.436 6  98550078.45343  24066924.352    24066930.340
        40.500          22.600


 119480890.442 7  93102004.266 7  22736462.094    22736474.191
        43.300          44.700    22736474.313    89222747.892 8  22736473.242
        49.700

 113830919.317 8  88699451.904 8  21661294.781    21661304.473
        50.600          48.300    21661303.699    85003650.662 8  21661302.207
        52.100

 124159533.609 6  96747678.609 6  23626755.500    23626765.410
        40.400          39.200    23626765.254


 107361844.275 8  83658684.792 8  20430280.508    20430289.988
        53.100          52.700    20430289.844    80172931.199 9  20430288.773
        54.800

 122792071.253 7  95682154.235 7  23366560.414    23366571.570
        42.100          45.500    23366571.219    91695391.573 7  23366571.023
        47.600

 131835458.551 4 102728986.993 6  25087463.422    25087477.355
        28.600          36.800    25087477.500    98448611.105 7  25087478.977
        42.300

 119002841.683 7  92729500.85045  22645479.313    22645486.492
        46.600          33.700


 21  7 19  1 20  0.0000000  0 10G23G01G22G08G10G31G32G27G24G21
 126401497.205 6  98494699.561 6  24053398.875    24053406.094
        41.000          41.400    24053405.293    94390777.160 7  24053410.191
        46.000

 123577019.51515  96293994.85215  23515957.195    23515969.785
        31.500          31.800    23515970.199    92281706.900 5  23515967.422
        34.700

 126397650.656 6  98491685.44243  24052664.055    24052669.586
        39.900          21.500


 119530605.070 7  93140742.873 7  22745924.031    22745934.832
        43.600          45.300    22745934.867    89259872.387 8  22745933.547
        49.200

 113875260.842 8  88734003.737 8  21669731.883    21669742.285
        50.500          49.100    21669741.629    85036762.830 8  21669739.926
        52.200

 124051726.859 6  96663673.444 6  23606241.617    23606251.176
        41.100          40.000    23606250.871


 107384017.870 8  83675962.906 8  20434500.000    20434509.520
        53.200          51.600    20434509.508    80189489.393 9  20434508.297
        54.700

 122883033.757 7  95753034.038 7  23383869.719    23383881.078
        42.200          44.300    23383880.566    91763318.029 7  23383879.953
        47.500

 131921702.59315 102796190.085 6  25103877.930    25103889.270
        31.800          38.300    25103889.219    98513014.107 7  25103890.609
        43.600

 118933663.837 7  92675596.04745  22632315.414    22632322.695
        46.300          34.700


 21  7 19  1 20 30.0000000  0 10G23G01G22G08G10G31G32G27G24G21
 126478114.737 6  98554401.474 6  24067976.547    24067986.234
        39.500          41.400    24067985.563    94447991.455 7  24067989.844
        45.300

 123475355.018 5  96214776.216 5  23496613.555    23496624.496
        33.200          33.400    23496624.680    92205788.989 6  23496622.410
        36.200

 126322755.522 6  98433325.65043  24038411.094    24038417.863
        39.200          20.400


 119580750.996 7  93179817.576 7  22755465.438    22755477.367
        43.000          44.700    22755477.113    89297318.963 8  22755475.398
        48.600

 113919778.847 8  88768693.074 8  21678203.547    21678213.480
        51.100          48.500    21678212.727    85070006.770 8  21678211.922
        52.500

 123943995.511 6  96579727.060 6  23585739.680    23585750.742
        40.900          40.400    23585749.586


 107406621.452 8  83693576.084 8  20438801.438    20438810.820
        52.800          52.400    20438810.742    80206368.690 9  20438809.500
        54.700

 122974173.166 7  95824051.693 7  23401213.742    23401224.363
        42.400          44.000    23401223.754    91831376.596 8  23401223.625
        48.000

 132008295.358 5 102863664.971 6  25120357.703    25120367.484
        32.400          36.900    25120366.645    98577677.510 6  25120367.859
        41.800

 118864718.692 7  92621872.57545  22619196.328    22619202.602
        47.300          34.600


 21  7 19  1 21  0.0000000  0 10G23G01G22G08G10G31G32G27G24G21
 126554805.533 6  98614160.484 6  24082569.883    24082580.000
        38.300          40.800    24082579.465    94505260.505 7  24082582.965
        44.100

 123373833.780 5  96135668.782 4  23477289.719    23477304.953
        30.500          29.500    23477303.766    92129977.774 6  23477304.461
        37.400

 126247902.640 6  98374998.79243  24024168.023    24024173.777
        40.900          21.100


 119631325.343 7  93219226.129 7  22765089.250    22765101.070
        42.700          44.800    22765101.262    89335085.457 8  22765099.957
        48.600

 113964472.828 8  88803519.537 8  21686709.242    21686718.719
        51.200          48.000    21686718.063    85103382.125 8  21686716.484
        52.200

 123836342.068 6  96495841.285 6  23565253.641    23565263.859
        40.300          38.500    23565263.102


 107429653.072 8  83711522.791 8  20443184.164    20443193.676
        53.500          51.400    20443193.602    80223567.616 9  20443192.410
        54.700

 123065485.924 7  95895204.449 7  23418590.195    23418600.820
        43.600          44.200    23418600.801    91899564.621 7  23418600.148
        47.600

 132095233.95715 102931409.324 6  25136900.414    25136911.871
        32.900          38.000    25136911.820    98642599.158 7  25136911.684
        42.000

 118796007.806 7  92568331.64445  22606120.992    22606127.832
        47.600          35.200


 21  7 19  1 21 30.0000000  0 10G23G01G22G08G10G31G32G27G24G21
 126631570.046 6  98673977.000 6  24097178.281    24097187.641
        39.100          41.600    24097188.090    94562584.620 7  24097190.203
        43.400

 123272458.117 5  96056674.89214  23458004.234    23458012.574
        33.300          29.900    23458013.043    92054275.230 6  23458012.230
        37.600

 126173092.818 6  98316705.43243  24009933.516    24009938.191
        41.700          22.500


 119682326.525 7  93258967.261 7  22774795.234    22774805.684
        43.000          43.900    22774805.586    89373170.703 8  22774805.727
        48.800

 114009343.341 8  88838483.542 8  21695247.250    21695257.203
        50.200          48.500    21695256.406    85136889.305 8  21695254.930
        52.100

 123728770.405 6  96412019.320 6  23544783.414    23544792.922
        39.400          38.700    23544793.512


 107453111.646 8  83729802.217 8  20447648.203    20447657.625
        53.200          52.300    20447657.617    80241085.392 9  20447656.477
        54.800

 123156969.388 7  95966490.170 7  23435997.563    23436009.773
        42.600          45.800    23436009.934    91967880.097 8  23436009.480
        48.100

 132182516.382 5 102999421.539 6  25153510.172    25153521.039
        34.200          39.200    25153520.105    98707777.548 7  25153522.250
        44.300

 118727533.470 7  92514975.04845  22593089.984    22593097.516
        46.600          34.900


 21  7 19  1 22  0.0000000  0 10G23G01G22G08G10G31G32G27G24G21
 126708409.051 6  98733851.448 6  24111800.914    24111810.500
        39.000          41.100    24111809.914    94619964.395 7  24111813.117
        43.600

 123171231.326 5  95977796.86615  23438740.297    23438750.648
        34.800          30.700    23438750.238    91978683.844 6  23438749.281
        36.500

 126098326.861 6  98258446.30943  23995704.930    23995710.563
        41.900          22.300


 119733752.311 7  93299039.248 7  22784581.891    22784591.816
        43.300          43.900    22784591.984    89411573.014 8  22784591.855
        48.800

 114054391.205 8  88873585.773 7  21703819.289    21703829.402
        50.400          47.900    21703828.758    85170528.923 8  21703827.520
        52.000

 123621284.422 6  96328264.054 6  23524329.469    23524339.516
        40.600          39.500    23524339.574


 107476996.532 8  83748413.786 8  20452193.086    20452202.629
        52.300          51.800    20452202.527    80258921.490 9  20452201.586
        54.600

 123248621.211 7  96037907.104 7  23453438.609    23453449.453
        42.400          43.300    23453449.133    92036321.321 7  23453449.465
        47.500

 132270140.535 5 103067700.069 6  25170184.273    25170194.945
        34.400          38.300    25170194.805    98773211.164 6  25170195.680
        41.500

 118659298.281 7  92461804.79945  22580104.484    22580112.500
        47.000          34.100


 21  7 19  1 22 30.0000000  0 10G23G01G22G08G10G31G32G27G24G21
 126785321.425 6  98793783.125 6  24126437.133    24126445.383
        40.000          40.400    24126445.004    94677398.859 7  24126450.016
        45.700

 123070154.809 5  95899036.021 5  23419506.906    23419516.836
        34.100          31.200    23419516.164    91903204.659 6  23419514.805
        36.400

 126023604.262 7  98200220.95244  23981486.250    23981491.141
        42.200          24.400


 119785599.982 7  93339439.987 7  22794447.414    22794458.348
        42.800          44.500    22794458.762    89450290.378 8  22794457.980
        48.600

 114099615.482 8  88908825.468 8  21712425.430    21712435.590
        50.300          48.300    21712434.824    85204300.289 8  21712433.285
        51.800

 123513886.054 6  96244577.107 6  23503892.703    23503902.875
        40.400          40.300    23503902.578


 107501305.129 8  83767355.555 8  20456819.336    20456828.566
        52.900          51.700    20456828.305    80277074.016 9  20456827.273
        54.500

 123340437.189 7  96109451.980 7  23470909.828    23470922.777
        42.000          45.900    23470922.652    92104885.143 7  23470921.609
        47.800

 132358103.039 5 103136242.226 6  25186922.945    25186933.801
        32.300          36.800    25186934.008    98838897.418 6  25186934.730
        40.800

 118591303.569 7  92408821.92545  22567166.094    22567173.367
        46.300          35.700


 21  7 19  1 23  0.0000000  0 10G23G01G22G08G10G31G32G27G24G21
 126862306.716 6  98853771.592 6  24141086.367    24141095.418
        39.900          40.100    24141095.008    94734887.799 7  24141099.961
        46.100

 122969230.598 5  95820393.824 5  23400302.016    23400311.898
        32.900          30.300    23400314.512    91827839.199 6  23400310.410
        36.900

 125948924.557 6  98142028.99143  23967275.039    23967279.984
        41.900          23.900


 119837866.493 7  93380167.106 7  22804392.734    22804404.492
        42.600          45.200    22804405.027    89489320.531 8  22804403.793
        48.700

 114145015.878 8  88944202.364 8  21721064.586    21721074.492
        49.900          48.000    21721073.988    85238203.163 8  21721072.582
        51.800

 123406578.506 6  96160960.969 6  23483472.953    23483483.656
        40.600          40.700    23483483.078


 107526035.552 8  83786626.014 8  20461525.055    20461534.664
        52.700          52.000    20461534.570    80295541.526 9  20461533.184
        54.700

 123432413.961 7  96181122.120 7  23488414.539    23488425.109
        43.000          44.300    23488425.168    92173569.004 8  23488424.133
        48.000

 132446400.995 6 103205045.822 6  25203725.938    25203737.008
        36.300          39.700    25203736.867    98904834.151 7  25203736.500
        44.000

 118523550.653 7  92356027.46245  22554273.273    22554280.367
        47.200          34.900


 21  7 19  1 23 30.0000000  0 10G23G01G22G08G10G31G32G27G24G21
 126939364.959 6  98913816.938 6  24155750.258    24155759.152
        38.400          40.900    24155758.676    94792431.228 7  24155763.688
        45.800

 122868461.087 5  95741842.11542  23381126.313    23381133.641
        32.600          17.400                    91752589.359 6  23381135.113
        37.900

 125874288.257 6  98083870.93943  23953071.125    23953077.293
        40.100          22.600


 119890549.241 7  93421218.551 7  22814418.945    22814429.520
        44.300          45.000    22814429.973    89528661.476 8  22814428.980
        48.600

 114190592.497 8  88979716.610 7  21729737.281    21729747.465
        49.700          47.500    21729746.809    85272237.636 8  21729745.363
        51.500

 123299364.987 6  96077418.026 6  23463070.734    23463080.359
        40.200          38.600    23463079.000


 107551186.341 8  83806224.032 8  20466311.336    20466320.820
        52.700          51.800    20466320.660    80314322.959 9  20466319.273
        54.400

 123524548.390 6  96252915.101 7  23505945.813    23505957.754
        41.900          44.800    23505957.820    92242370.589 7  23505957.832
        47.900

 132535031.527 5 103274108.587 6  25220590.938    25220603.188
        33.900          38.000    25220602.934    98971019.301 7  25220603.824
        42.100

 118456041.627 7  92303423.03945  22541426.648    22541433.551
        46.800          34.600


 21  7 19  1 24  0.0000000  0 10G23G01G22G08G10G31G32G27G24G21
 127016496.757 5  98973919.657 6  24170426.203    24170437.012
        35.600          40.800    24170437.055    94850029.628 7  24170441.281
        45.200

 122767849.553 5  95663443.54942  23361980.836    23361986.770
        34.300          16.300                    91677457.452 6  23361989.996
        39.600

 125799696.379 6  98025747.42543  23938876.352    23938883.188
        38.400          21.800


 119943646.294 7  93462592.828 7  22824523.602    22824533.934
        43.400          45.800    22824534.184    89568311.813 8  22824532.879
        48.100

 114236346.132 8  89015368.761 8  21738444.859    21738454.809
        50.500          49.100    21738453.977    85306404.289 8  21738452.039
        51.500

 123192249.312 6  95993951.309 6  23442688.813    23442696.691
        41.600          39.600    23442696.625


 107576756.651 8  83826148.941 8  20471176.977    20471186.570
        52.500          51.900    20471186.641    80333417.666 9  20471185.129
        54.700

 123616838.068 7  96324829.082 7  23523509.656    23523520.305
        43.400          45.000    23523519.895    92311288.103 7  23523519.461
        47.200

 132623992.996 5 103343429.218 6  25237520.320    25237531.609
        33.600          37.400    25237530.848    99037451.505 6  25237532.613
        41.600

 118388778.908 7  92251010.54245  22528627.219    22528633.766
        47.500          34.800


 21  7 19  1 24 30.0000000  0 10G23G01G22G08G10G31G32G27G24G21
 127093701.921 6  99034079.420 6  24185120.930    24185128.961
        38.900          40.500    24185129.086    94907682.770 7  24185132.188
        44.300

 122667398.168 5                  23342863.969
        31.500                                    91602445.121 6  23342873.438
        38.000

 125725149.119 6  97967658.72943  23924690.563    23924697.480
        39.900          21.800


 119997155.547 7  93504288.281 7  22834706.250    22834716.457
        43.300          45.400    22834716.172    89608269.955 8  22834715.230
        48.000

 114282276.631 8  89051158.745 8  21747183.953    21747194.805
        49.600          48.700    21747194.309    85340703.019 8  21747192.445
        51.800

 123085234.249 6  95910563.048 6  23422323.633    23422332.816
        41.500          40.500    23422332.742


 107602744.674 8  83846399.352 8  20476122.484    20476131.820
        52.100          51.400    20476131.422    80352824.321 9  20476130.316
        54.400

 123709279.634 6  96396861.384 7  23541099.695    23541111.570
        40.900          44.700    23541110.992    92380319.094 7  23541110.691
        47.100

 132713282.39415 103413005.356 6  25254511.094    25254523.219
        31.800          37.500    25254523.027    99104128.689 6  25254522.980
        40.500

 118321764.475 7  92198791.51745  22515874.398    22515881.168
        47.000          34.600


 21  7 19  1 25  0.0000000  0  9G23G01G22G08G10G31G32G27G21
 127170980.588 6  99094296.565 6  24199824.297    24199834.945
        38.300          39.900    24199834.426    94965390.839 7  24199837.383
        43.900

 122567109.66114                  23323778.367
        28.600                                    91527554.446 6  23323789.066
        38.800

 125650646.872 6  97909605.06643  23910513.063    23910519.082
        39.400          22.500


 120051074.621 7  93546303.119 7  22844965.133    22844976.734
        42.600          44.900    22844976.605    89648534.162 8  22844976.090
        48.800

 114328384.359 8  89087086.827 8  21755957.977    21755969.070
        49.700          48.000    21755967.996    85375134.086 8  21755966.492
        51.700

 122978323.482 6  95827256.028 6  23401977.516    23401987.824
        41.100          40.500    23401988.035


 107629149.232 8  83866974.318 8  20481146.750    20481156.355
        52.300          51.400    20481156.426    80372541.988 9  20481154.984
        54.500

 123801870.362 6  96469009.937 7  23558717.961    23558730.176
        41.400          43.600    23558730.121    92449461.453 7  23558730.813
        47.800

 118255000.510 7  92146767.66445  22503169.930    22503176.555
        46.600          34.300


 21  7 19  1 25 30.0000000  0  9G23G01G22G08G10G31G32G27G21
 127248332.642 6  99154570.830 6  24214544.977    24214554.430
        38.900          40.000    24214554.688    95023153.651 7  24214556.945
        44.100

 122466986.43514                  23304726.703
        29.600                                    91452787.089 6  23304736.238
        37.600

 125576189.735 6  97851586.58943  23896345.391    23896350.785
        40.300          22.900


 120105400.795 7  93588635.167 7  22855303.695    22855315.605
        42.000          46.600    22855315.438    89689102.366 8  22855314.125
        48.000

 114374669.247 8  89123152.962 8  21764765.992    21764776.230
        49.200          48.200    21764775.543    85409697.463 8  21764774.730
        52.100

 122871520.103 6  95744032.692 6  23381654.977    23381663.895
        41.400          40.800    23381663.953


 107655968.490 8  83887872.448 8  20486250.813    20486259.750
        52.200          51.600    20486259.590    80392569.363 9  20486258.617
        54.800

 123894606.889 6  96541272.106 7  23576365.523    23576378.371
        41.500          44.500    23576378.078    92518712.654 8  23576377.934
        48.100

 118188488.675 7  92094940.26545  22490513.383    22490519.965
        46.600          34.900


 21  7 19  1 26  0.0000000  0  8G23G22G08G10G31G32G27G21
 127325757.672 6  99214901.985 6  24229278.891    24229287.711
        39.700          40.600    24229287.906    95080971.007 7  24229291.281
        44.100

 125501777.731 6  97793603.27544  23882184.039    23882190.813
        41.400          24.700


 120160130.832 7  93631281.909 7  22865718.570    22865729.848
        42.200          47.100    22865730.445    89729972.147 8  22865728.801
        48.000

 114421131.074 7  89159356.963 8  21773607.281    21773617.566
        47.200          48.400    21773616.906    85444392.963 8  21773616.027
        51.600

 122764826.982 6  95660895.241 6  23361350.813    23361360.836
        40.100          39.700    23361359.605


 107683200.661 8  83909092.317 8  20491432.891    20491441.785
        52.400          51.200    20491441.586    80412905.074 9  20491440.754
        54.700

 123987485.841 7  96613645.249 7  23594041.523    23594052.430
        42.300          43.900    23594052.223    92588070.240 7  23594051.660
        47.500

 118122230.584 7  92043310.58645  22477904.922    22477911.547
        46.300          34.800


 21  7 19  1 26 30.0000000  0  8G23G22G08G10G31G32G27G21
 127403255.616 6  99275289.906 6  24244025.648    24244035.086
        37.900          40.700    24244034.727    95138842.766 7  24244038.770
        44.500

 125427411.018 7  97735655.26044  23868032.859    23868038.980
        42.200          26.500


 120215262.220 7  93674241.405 7  22876209.297    22876221.621
        42.200          46.600    22876221.414    89771141.658 8  22876220.223
        48.500

 114467769.884 7  89195698.867 7  21782483.820    21782492.844
        47.800          47.600    21782492.160    85479220.621 8  21782490.762
        51.600

 122658247.292 6  95577846.223 6  23341069.813    23341079.371
        40.900          40.200    23341078.949


 107710844.009 8  83930632.591 8  20496693.219    20496702.242
        52.300          51.400    20496702.117    80433547.828 9  20496701.223
        54.700

 124080504.077 6  96686126.935 7  23611741.141    23611753.809
        41.700          44.600    23611753.172    92657531.851 7  23611752.637
        47.700

 118056228.471 7  91991880.38545  22465344.422    22465351.707
        46.300          35.200


 21  7 19  1 27  0.0000000  0  8G23G22G08G10G31G32G27G21
 127480826.540 6  99335734.743 6  24258786.094    24258796.414
        36.800          41.100    24258796.352    95196769.032 7  24258800.301
        44.900

 125353090.078 6  97677742.90844  23853889.805    23853896.563
        41.400          25.600


 120270792.985 7  93717512.070 7  22886777.359    22886788.594
        42.600          46.100    22886788.637    89812609.376 8  22886787.352
        48.800

 114514585.843 8  89232178.826 8  21791391.961    21791401.773
        48.000          48.800    21791401.211    85514180.563 8  21791399.566
        51.500

 122551784.715 6  95494888.450 6  23320809.469    23320819.535
        40.500          38.800    23320819.031


 107738897.143 8  83952492.178 8  20502031.406    20502040.625
        52.300          51.500    20502040.383    80454496.596 9  20502039.602
        55.000

 124173658.624 6  96758714.798 7  23629467.477    23629479.438
        41.400          44.100    23629479.961    92727095.211 7  23629479.461
        47.500

 117990484.170 7  91940651.06845  22452833.781    22452841.441
        46.600          35.800


 21  7 19  1 27 30.0000000  0  8G23G22G08G10G31G32G27G21
 127558470.312 6  99396236.278 7  24273562.625    24273571.641
        39.100          42.000    24273571.398    95254749.706 7  24273575.590
        45.400

 125278815.222 6  97619866.46244  23839755.930    23839762.320
        41.300          26.600


 120326720.658 6  93761092.066 7  22897418.383    22897430.961
        41.200          45.900    22897430.668    89854373.515 8  22897430.801
        49.000

 114561579.050 8  89268796.874 8  21800334.391    21800344.551
        48.100          48.700    21800343.813    85549272.859 8  21800341.645
        51.000

 122445441.904 6  95412024.005 6  23300574.836    23300583.434
        40.600          41.400    23300583.848


 107767358.411 8  83974669.784 8  20507447.594    20507456.520
        52.700          51.300    20507456.488    80475750.135 9  20507455.695
        54.800

 124266946.346 6  96831406.462 7  23647220.125    23647231.508
        41.100          42.700    23647230.980    92796758.052 7  23647231.648
        46.900

 117924999.450 7  91889624.03145  22440372.734    22440379.820
        46.900          35.800


 21  7 19  1 28  0.0000000  0  8G23G22G08G10G31G32G27G21
 127636186.888 6  99456794.611 7  24288351.563    24288361.043
        40.300          42.100    24288360.773    95312784.758 7  24288364.594
        45.100

 125204586.751 6  97562026.13944  23825630.797    23825637.168
        40.900          25.800


 120383041.802 6  93804978.603 7  22908136.969    22908148.711
        41.900          45.800    22908148.633    89896431.448 8  22908147.602
        48.300

 114608749.650 8  89305553.182 8  21809310.195    21809320.723
        49.700          48.700    21809320.070    85584497.639 8  21809318.469
        51.200

 122339222.462 7  95329255.731 6  23280362.117    23280370.465
        42.000          39.700    23280369.738


 107796226.224 8  83997164.184 8  20512941.320    20512949.789
        53.400          51.300    20512949.797    80497307.265 9  20512948.938
        54.800

 124360364.242 6  96904199.544 7  23664996.453    23665007.824
        40.000          42.900    23665007.785    92866518.086 7  23665009.426
        47.800

 117859776.486 8  91838800.95346  22427961.563    22427968.086
        48.000          36.500


 21  7 19  1 28 30.0000000  0  8G23G22G08G10G31G32G27G21
 127713976.209 6  99517409.648 7  24303154.359    24303164.125
        40.200          42.200    24303163.637    95370874.141 7  24303167.102
        45.200

 125130404.730 6  97504222.03644  23811514.422    23811520.875
        41.900          26.300


 120439754.296 6  93849170.153 7  22918928.461    22918940.711
        41.800          45.700    22918941.188    89938781.660 8  22918939.539
        48.800

 114656097.630 8  89342447.672 8  21818319.516    21818330.465
        48.100          48.600    21818329.770    85619854.877 8  21818328.457
        51.500

 122233129.631 7  95246586.009 6  23260173.492    23260182.016
        42.400          41.000    23260181.438


 107825498.925 8  84019974.085 8  20518511.531    20518520.480
        53.000          51.600    20518520.328    80519166.750 9  20518519.313
        54.800

 124453909.098 6  96977091.559 7  23682797.984    23682809.891
        40.300          42.600    23682808.734    92936372.921 7  23682809.563
        47.200

 117794817.073 8  91788183.24246  22415599.789    22415607.043
        48.100          36.800


 21  7 19  1 29  0.0000000  0  8G23G22G08G10G31G32G27G21
 127791838.291 6  99578081.399 6  24317969.727    24317980.258
        39.000          41.700    24317980.145    95429017.897 7  24317984.930
        45.500

 125056269.823 6  97446454.59144  23797406.516    23797413.246
        40.300          25.600


 120496856.042 6  93893664.974 7  22929795.117    22929807.199
        41.800          46.400    22929807.168    89981422.526 8  22929805.527
        48.300

 114703623.249 8  89379480.623 8  21827364.828    21827374.590
        48.800          49.100    21827373.813    85655344.764 8  21827372.594
        51.600

 122127166.560 7  95164017.498 6  23240009.016    23240017.391
        43.100          39.600    23240016.320


 107855175.037 8  84043098.322 8  20524158.477    20524167.684
        53.800          51.200    20524167.449    80541327.480 9  20524166.402
        54.800

 124547577.951 6  97050080.242 7  23700623.203    23700635.023
        41.000          43.600    23700635.113    93006320.369 7  23700633.563
        46.600

 117730123.364 8  91737772.55846  22403289.344    22403296.152
        48.200          36.800


 21  7 19  1 29 30.0000000  0  8G23G22G08G10G31G32G27G21
 127869773.186 6  99638809.804 6  24332801.063    24332812.047
        37.100          41.700    24332810.887    95487215.921 7  24332814.664
        43.800

 124982182.409 6  97388724.18444  23783308.406    23783314.746
        40.900          25.800


 120554344.142 7  93938460.840 7  22940735.719    22940747.016
        42.700          46.500    22940747.664    90024351.893 8  22940744.996
        48.200

 114751326.662 8  89416652.073 8  21836442.023    21836452.043
        49.100          48.100    21836451.457    85690967.413 8  21836450.016
        51.500

 122021336.748 7  95081552.745 6  23219870.547    23219878.773
        43.500          40.900    23219878.246


 107885252.933 8  84066535.639 8  20529882.328    20529891.414
        53.600          51.600    20529891.215    80563788.245 9  20529890.039
        54.500

 124641367.763 6  97123163.130 7  23718470.906    23718482.742
        40.800          42.600    23718482.465    93076358.138 7  23718482.637
        47.800

 117665697.317 8  91687570.45146  22391029.688    22391035.996
        48.700          36.700


 21  7 19  1 30  0.0000000  0  8G23G22G08G10G31G32G27G21
 127947781.063 5  99699595.105 7  24347643.367    24347655.629
        35.500          42.200    24347655.016    95545468.507 7  24347658.262
        42.700

 124908142.887 6  97331031.10944  23769218.672    23769225.305
        41.200          25.300


 120612215.733 7  93983555.571 7  22951747.664    22951759.172
        43.000          45.100    22951758.703    90067567.672 8  22951757.938
        49.300

 114799208.117 8  89453962.272 8  21845553.102    21845563.484
        48.500          48.400    21845562.914    85726723.021 8  21845561.527
        51.800

 121915643.531 7  94999194.487 6  23199757.063    23199765.535
        43.700          39.900    23199764.758


 107915731.161 8  84090284.916 8  20535681.898    20535691.238
        53.200          51.300    20535691.094    80586547.960 9  20535689.805
        55.000

 124735275.643 6  97196338.024 6  23736339.672    23736351.707
        39.700          41.900    23736352.617    93146484.046 7  23736352.344
        47.200

 117601541.231 8  91637578.71046  22378820.656    22378827.574
        49.100          36.400


 21  7 19  1 30 30.0000000  0  9G23G01G22G08G10G31G32G27G21
 128025861.851 6  99760437.144 6  24362505.859    24362513.488
        38.800          41.100    24362513.539    95603775.510 6  24362516.723
        41.200

 121475317.02515  94656334.44816  23116029.773
        31.900          37.900    23116038.738    90712296.98316  23116037.938
        41.600

 124834151.498 6  97273375.53844  23755139.703    23755145.742
        41.800          25.900


 120670468.720 7  94028947.437 7  22962832.930    22962844.391
        42.400          44.500    22962843.984    90111068.214 8  22962843.898
        49.800

 114847267.648 8  89491411.246 8  21854699.180    21854708.980
        48.200          48.500    21854708.172    85762611.600 8  21854707.090
        51.900

 121810090.101 7  94916945.152 6  23179671.578    23179678.688
        43.300          39.500    23179677.539


 107946607.980 8  84114344.779 8  20541557.531    20541566.816
        53.000          51.500    20541566.297    80609605.335 9  20541565.535
        54.900

 124829298.443 6  97269602.445 6  23754232.406    23754243.805
        41.400          41.500    23754243.418    93216695.808 7  23754244.508
        47.300

 117537656.677 8  91587798.54046  22366664.086    22366670.984
        48.500          36.300


 21  7 19  1 31  0.0000000  0  9G23G01G22G08G10G31G32G27G21
 128104015.270 6  99821335.884 6  24377377.055    24377385.977
        38.100          41.100    24377385.016    95662136.805 7  24377388.484
        42.000

 121377173.426 5  94579858.914 6  23097351.438    23097363.375
        30.500          38.600    23097363.684    90639007.922 7  23097362.484
        43.200

 124760208.264 7  97215757.49844  23741067.305    23741074.340
        42.600          26.400


 120729100.017 7  94074634.155 7  22973990.484    22974001.277
        42.500          44.500    22974001.699    90154851.307 8  22974000.953
        49.300

 114895505.215 8  89528998.925 8  21863878.758    21863888.941
        48.700          49.100    21863888.234    85798633.128 8  21863887.051
        51.900

 121704679.354 7  94834806.952 6  23159613.813    23159620.438
        43.800          41.400    23159620.563


 107977881.630 8  84138713.855 8  20547508.758    20547517.938
        52.700          51.700    20547517.641    80632959.026 9  20547516.844
        54.800

 124923432.912 6  97342953.920 6  23772146.688    23772155.625
        40.900          41.000    23772155.918    93286990.938 7  23772157.617
        46.800

 117474045.582 8  91538231.45046  22354559.086    22354566.055
        48.800          36.500


 21  7 19  1 31 30.0000000  0  9G23G01G22G08G10G31G32G27G21
 128182241.104 6  99882291.042 6  24392263.008    24392272.191
        37.600          41.300    24392272.395    95720552.169 7  24392275.246
        42.900

 121279224.716 5  94503535.278 6  23078715.195    23078724.258
        31.800          38.100    23078724.465    90565864.443 7  23078722.395
        42.600

 124686313.488 7  97158177.20744  23727005.313    23727012.211
        42.600          27.300


 120788106.770 7  94120613.354 7  22985218.930    22985229.461
        42.300          43.300    22985229.543    90198914.712 8  22985229.785
        49.200

 114943920.745 8  89566725.304 8  21873091.383    21873101.480
        48.900          48.000    21873100.914    85834787.570 8  21873099.301
        51.300

 121599414.699 7  94752782.644 6  23139580.797    23139589.379
        43.100          41.500    23139589.301


 108009550.268 8  84163390.712 8  20553535.156    20553544.430
        52.600          51.800    20553544.363    80656607.688 9  20553543.109
        54.700

 125017675.773 6  97416389.845 6  23790079.305    23790090.688
        39.600          41.600    23790090.766    93357367.036 7  23790091.766
        47.000

 117410709.844 8  91488878.94146  22342506.680    22342513.715
        48.400          36.600


 21  7 19  1 32  0.0000000  0  9G23G01G22G08G10G31G32G27G21
 128260539.603 6  99943302.838 6  24407161.484    24407171.793
        36.800          41.000    24407171.578    95779021.776 7  24407175.383
        43.900

 121181473.799 5  94427365.800 6  23060111.477    23060123.645
        32.900          39.500    23060122.059    90492868.652 7  23060121.293
        42.700

 124612468.111 7  97100635.40344  23712954.203    23712959.852
        42.400          28.000


 120847486.517 7  94166883.237 7  22996519.555    22996529.074
        42.900          45.100    22996530.125    90243256.678 8  22996529.016
        49.400

 114992514.695 8  89604590.703 8  21882339.094    21882348.793
        48.000          48.100    21882348.035    85871075.243 8  21882346.457
        51.200

 121494299.712 7  94670874.889 6  23119580.102    23119586.098
        44.500          41.000    23119585.566


 108041612.502 8  84188374.264 8  20559636.039    20559645.742
        52.500          52.100    20559645.523    80680550.257 9  20559644.375
        54.700

 125112024.366 6  97489908.137 7  23808034.641    23808045.715
        40.600          42.600    23808045.297    93427822.046 7  23808045.242
        47.000

 117347651.599 8  91439742.65046  22330507.219    22330514.332
        48.500          36.200


 21  7 19  1 32 30.0000000  0  9G23G01G22G08G10G31G32G27G21
 128338910.535 6 100004371.070 6  24422076.523    24422085.387
        38.100          40.900    24422085.117    95837545.433 7  24422088.645
        43.800

 121083923.100 5  94351352.255 6  23041549.273    23041560.148
        35.700          38.700    23041559.211    90420022.380 7  23041558.652
        44.100

 124538671.934 6  97043131.94744  23698911.961    23698916.801
        41.800          27.600


 120907237.238 7  94213442.179 7  23007888.625    23007899.625
        42.800          44.200    23007900.070    90287875.647 8  23007899.617
        49.200

 115041286.901 8  89642594.998 8  21891619.797    21891629.813
        48.100          48.400    21891629.313    85907496.023 8  21891627.926
        51.400

 121389337.337 7  94589086.098 6  23099604.711    23099612.758
        44.200          40.900    23099612.348


 108074066.444 8  84213663.048 8  20565812.086    20565821.559
        52.800          52.100    20565821.313    80704785.344 9  20565820.121
        54.800

 125206475.261 6  97563506.159 7  23826009.555    23826019.004
        41.100          42.800    23826018.703    93498353.480 7  23826018.203
        46.100

 117284872.764 8  91390824.08946  22318560.750    22318567.461
        48.700          36.300


 21  7 19  1 33  0.0000000  0  9G23G01G22G08G10G31G32G27G21
 128417353.933 6 100065495.779 6  24437000.648    24437012.141
        36.200          41.300    24437011.953    95896123.272 7  24437015.355
        42.700

 120986575.325 6  94275496.855 6  23023026.078    23023034.793
        36.000          37.900    23023033.664    90347327.618 7  23023034.301
        45.000

 124464925.635 7  96985667.35344  23684877.750    23684883.180
        42.800          27.800


 120967355.382 7  94260287.480 7  23019328.391    23019339.727
        42.000          43.600    23019340.484    90332769.036 8  23019340.090
        49.700

 115090237.722 7  89680738.490 8  21900933.766    21900945.109
        47.300          48.500    21900944.266    85944050.183 8  21900943.324
        52.000

 121284531.015 7  94507418.959 6  23079661.641    23079669.129
        44.100          41.100    23079668.383


 108106910.700 8  84239255.969 8  20572061.578    20572071.555
        52.500          51.500    20572071.492    80729311.896 9  20572070.348
        55.000

 125301025.765 6  97637181.803 7  23843999.133    23844011.574
        39.300          42.900    23844011.266    93568959.241 7  23844010.910
        46.600

 117222375.167 8  91342124.67146  22306668.070    22306674.359
        48.100          36.300


 21  7 19  1 33 30.0000000  0  9G23G01G22G08G10G31G32G27G21
 128495869.488 6 100126676.601 6  24451944.125    24451953.828
        38.400          41.700    24451953.441    95954754.888 7  24451955.625
        42.500

 120889432.494 5  94199801.144 6  23004539.641    23004549.188
        35.600          39.500    23004548.883    90274785.929 7  23004548.051
        45.200

 124391228.935 7  96928241.39044  23670853.766    23670859.586
        42.600          27.900


 121027838.166 7  94307416.867 7  23030838.938    23030849.508
        42.900          43.900    23030849.453    90377934.717 8  23030849.715
        49.700

 115139366.787 8  89719020.831 8  21910283.836    21910294.215
        48.100          49.100    21910293.707    85980737.422 8  21910291.762
        51.500

 121179883.652 7  94425875.623 6  23059746.492    23059755.348
        43.900          41.700    23059754.992


 108140143.048 8  84265151.304 8  20578385.508    20578395.418
        53.400          51.200    20578394.797    80754128.260 9  20578394.199
        54.700

 125395672.181 6  97710932.164 7  23862012.172    23862022.090
        40.700          43.000    23862022.184    93639636.685 7  23862021.461
        45.300

 117160160.402 8  91293645.64846  22294828.961    22294835.453
        48.200          36.100


 21  7 19  1 34  0.0000000  0  9G23G01G22G08G10G31G32G27G21
 128574456.928 6 100187913.546 6  24466899.898    24466908.578
        40.100          41.400    24466908.758    96013440.304 7  24466910.664
        42.600

 120792497.257 5  94124267.277 6  22986090.531    22986103.414
        33.900          39.300    22986102.348    90202399.289 7  22986102.082
        45.100

 124317582.418 7  96870854.53444  23656839.148    23656844.801
        42.800          27.100


 121088683.196 7  94354828.559 7  23042417.383    23042427.422
        42.300          42.700    23042427.352    90423370.878 8  23042427.832
        49.300

 115188674.256 8  89757442.221 7  21919666.914    21919676.652
        48.800          47.800    21919675.820    86017557.927 8  21919674.609
        51.400

 121075398.425 7  94344458.662 6  23039862.234    23039872.113
        42.500          41.800    23039871.855


 108173761.840 8  84291347.766 8  20584783.195    20584792.754
        52.300          51.900    20584792.844    80779233.203 9  20584791.617
        54.700

 125490411.610 6  97784755.015 6  23880039.719    23880050.211
        41.800          41.500    23880049.984    93710383.552 7  23880051.613
        46.300

 117098230.545 7  91245388.63646  22283044.148    22283050.434
        47.300          36.000


 21  7 19  1 34 30.0000000  0  9G23G01G22G08G10G31G32G27G21
 128653117.071 6 100249207.097 6  24481865.914    24481876.398
        37.600          40.500    24481876.613    96072179.938 7  24481879.387
        42.600

 120695772.885 5  94048897.677 6  22967685.352    22967697.449
        34.600          39.700    22967696.617    90130170.064 7  22967695.613
        44.700

 124243987.000 7  96813507.47044  23642834.789    23642840.195
        43.400          28.700


 121149888.263 7  94402520.757 7  23054063.969    23054074.461
        42.200          43.200    23054075.090    90469075.902 8  23054074.250
        48.300

 115238160.912 8  89796003.240 8  21929083.195    21929093.855
        48.100          48.500    21929093.500    86054512.209 8  21929091.758
        51.900

 120971079.558 6  94263171.288 6  23020010.453    23020020.379
        41.700          40.700    23020020.227


 108207766.060 8  84317844.561 8  20591254.156    20591263.477
        53.100          51.700    20591263.211    80804625.956 9  20591262.234
        54.600

 125585241.585 6  97858648.429 7  23898084.813    23898095.875
        41.400          43.000    23898096.273    93781198.059 7  23898096.469
        45.400

 117036588.116 7  91197355.58945  22271313.586    22271320.230
        47.300          35.900


 21  7 19  1 35  0.0000000  0  9G23G01G22G08G10G31G32G27G21
 128731849.899 6 100310557.336 6  24496849.883    24496858.434
        38.600          40.500    24496858.961    96130973.883 7  24496861.262
        43.100

 120599262.019 5  93973694.410 6  22949320.852    22949331.465
        35.200          38.800    22949330.535    90058100.320 7  22949330.418
        45.000

 124170443.223 7  96756200.68644  23628839.094    23628845.238
        43.400          27.700


 121211450.531 7  94450491.335 7  23065778.820    23065789.055
        42.000          43.200    23065789.781    90515047.686 8  23065789.379
        48.700

 115287826.988 8  89834704.041 8  21938535.430    21938545.020
        48.600          48.100    21938544.465    86091600.483 8  21938542.902
        51.900

 120866930.240 7  94182016.076 6  23000192.828    23000201.984
        43.800          41.700    23000201.730


 108242154.099 9  84344640.429 8  20597798.250    20597807.402
        54.100          51.900    20597807.660    80830305.326 9  20597806.164
        54.800

 125680159.195 7  97932610.114 6  23916147.508    23916158.363
        42.200          41.800    23916158.223    93852078.057 7  23916159.219
        45.700

 116975235.297 8  91149548.22646  22259638.961    22259645.469
        48.100          37.100


 21  7 19  1 35 30.0000000  0  9G23G01G22G08G10G31G32G27G21
 128810654.542 6 100371963.470 6  24511845.555    24511855.172
        38.300          40.200    24511854.723    96189821.461 7  24511858.051
        42.500

 120502966.46815  93898658.954 6  22930997.211
        35.700          39.500    22931006.148    89986191.330 7  22931005.844
        45.100

 124096950.680 7  96698933.79544  23614854.023    23614859.984
        43.300          28.100


 121273366.208 6  94498737.225 7  23077559.836    23077571.672
        41.800          42.000    23077571.445    90561283.333 8  23077571.180
        48.400

 115337671.757 8  89873544.089 8  21948020.031    21948030.391
        49.000          48.900    21948029.500    86128822.204 8  21948027.586
        51.300

 120762953.054 7  94100994.965 6  22980406.336    22980415.207
        42.200          40.700    22980414.516


 108276923.398 8  84371733.391 8  20604414.391    20604423.773
        53.700          52.000    20604423.922    80856269.414 9  20604422.469
        54.600

 125775160.54116  98006637.073 6  23934223.852    23934235.773
        40.300          40.200    23934235.715    93923020.501 7  23934236.363
        45.000

 116914172.860 8  91101967.11546  22248019.633    22248025.738
        49.100          38.000


 21  7 19  1 36  0.0000000  0  9G23G01G22G08G10G31G32G27G21
 128889531.657 6 100433426.072 6  24526854.898    24526865.016
        38.000          38.700    24526864.398    96248723.089 7  24526868.285
        43.300

 120406889.432 6  93823793.765 6  22912712.727    22912724.359
        37.700          39.900    22912723.945    89914445.539 7  22912723.289
        45.600

 124023510.589 7  96641707.78744  23600879.508    23600884.988
        43.100          28.400


 121335633.897 6  94547257.480 7  23089410.125    23089420.633
        41.900          42.900    23089420.875    90607781.878 8  23089420.648
        48.600

 115387695.962 8  89912523.968 8  21957539.539    21957549.297
        49.100          48.200    21957548.559    86166177.920 8  21957547.379
        51.500

 120659152.033 7  94020111.143 6  22960653.297    22960662.316
        42.500          41.000    22960661.660


 108312072.889 8  84399122.597 8  20611102.469    20611112.566
        53.200          51.500    20611112.387    80882517.403 9  20611111.352
        54.700

 125870243.225 6  98080727.369 7  23952320.945    23952331.383
        41.700          42.300    23952330.988    93994023.703 7  23952328.371
        43.800

 116853403.583 8  91054614.45546  22236454.648    22236461.887
        48.300          37.800


 21  7 19  1 36 30.0000000  0  9G23G01G22G08G10G31G32G27G21
 128968480.321 6 100494944.422 6  24541880.477    24541888.711
        40.400          38.800    24541888.090    96307678.173 7  24541892.238
        44.600

 120311032.684 6  93749100.221 6  22894471.688    22894483.176
        39.000          38.700    22894482.656    89842864.265 7  22894482.492
        46.200

 123950122.158 7  96584522.02244  23586913.055    23586919.512
        42.200          27.200


 121398249.648 6  94596048.918 7  23101324.977    23101337.027
        41.300          44.300    23101337.488    90654540.320 8  23101336.023
        48.800

 115437898.959 8  89951643.184 8  21967093.375    21967102.973
        49.300          48.900    21967102.359    86203667.128 8  21967100.320
        51.400

 120555529.430 7  93939366.324 6  22940936.102    22940943.637
        43.200          40.500    22940942.750


 108347600.087 8  84426806.118 8  20617863.656    20617872.980
        53.900          51.600    20617872.988    80909047.453 9  20617872.148
        54.900

 125965403.400 6  98154878.096 6  23970425.633    23970438.867
        38.900          41.100    23970438.660    94065084.794 7  23970438.332
        45.400

 116792928.711 8  91007491.19946  22224946.766    22224954.066
        49.600          38.300


 21  7 19  1 37  0.0000000  0  9G23G01G22G08G10G31G32G27G21
 129047500.914 6 100556518.873 6  24556915.820    24556926.266
        39.800          40.900    24556926.352    96366686.946 7  24556929.676
        43.900

 120215399.325 6  93674580.733 6  22876275.023    22876284.680
        39.400          39.900    22876284.996    89771449.790 7  22876283.473
        45.900

 123876786.170 7  96527377.10744  23572956.617    23572964.039
        42.700          26.500


 121461211.140 6  94645109.783 7  23113306.586    23113317.855
        41.500          43.500    23113318.512    90701556.982 8  23113317.531
        49.000

 115488281.302 8  89990902.113 8  21976680.016    21976690.551
        49.300          48.600    21976689.980    86241290.289 8  21976688.105
        51.700

 120452088.786 7  93858763.300 6  22921251.438    22921259.457
        43.400          40.800    22921259.223


 108383503.678 8  84454782.937 8  20624695.820    20624705.344
        53.600          51.300    20624705.336    80935858.556 9  20624704.371
        54.800

 126060638.540 6  98229087.242 6  23988549.430    23988561.535
        40.500          41.300    23988562.016    94136201.815 7  23988561.410
        45.600

 116732750.583 8  90960599.16746  22213495.359    22213502.574
        50.200          38.300


 21  7 19  1 37 30.0000000  0  9G23G01G22G08G10G31G32G27G21
 129126593.495 6 100618149.381 6  24571967.039    24571977.004
        39.400          40.800    24571976.406    96425749.517 7  24571980.023
        43.000

 120119992.028 6  93600237.414 6  22858118.516    22858129.566
        40.000          39.500    22858128.473    89700204.107 7  22858128.191
        45.200

 123803503.446 7  96470273.71644  23559012.859    23559018.828
        42.900          27.300


 121524515.753 6  94694437.982 7  23125352.906    23125364.348
        40.900          43.400    23125364.508    90748829.833 8  23125363.977
        48.400

 115538843.256 8  90030301.020 7  21986302.594    21986311.934
        48.800          47.900    21986311.570    86279047.573 8  21986310.172
        51.600

 120348833.763 6  93778304.896 6  22901601.297    22901610.223
        41.700          40.600    22901609.938


 108419782.045 8  84483051.807 8  20631599.484    20631608.926
        53.700          51.200    20631608.813    80962949.544 9  20631608.012
        54.900

 126155945.627 6  98303352.430 7  24006686.578    24006697.996
        38.600          42.000    24006698.348    94207372.629 7  24006696.781
        43.900

 116672871.085 8  90913939.83346  22202100.703    22202107.695
        49.800          39.500


 21  7 19  1 38  0.0000000  0  9G23G01G22G08G10G31G32G27G21
 129205758.281 6 100679836.174 6  24587030.898    24587042.172
        38.600          40.400    24587042.227    96484866.016 7  24587045.609
        43.500

 120024813.656 6  93526072.501 6  22840007.086    22840018.184
        39.400          40.100    22840017.191    89629129.393 7  22840016.348
        45.300

 123730274.582 6  96413212.28544  23545076.586    23545083.438
        40.800          26.100


 121588160.940 6  94744031.581 7  23137464.805    23137475.891
        41.800          42.900    23137475.414    90796357.029 7  23137475.348
        47.900

 115589585.141 8  90069840.102 7  21995957.992    21995967.676
        48.700          47.200    21995966.930    86316939.193 8  21995966.488
        52.000

 120245768.065 7  93697994.038 6  22881989.250    22881997.676
        42.400          40.000    22881997.156


 108456433.659 9  84511611.504 8  20638574.141    20638583.582
        54.100          51.800    20638583.672    80990319.261 9  20638582.504
        54.800

 126251321.973 6  98377671.575 6  24024834.609    24024847.641
        38.900          40.500    24024847.328    94278595.147 7  24024848.336
        45.400

 116613292.336 8  90867514.84046  22190763.109    22190770.078
        50.000          38.800


 21  7 19  1 38 30.0000000  0  9G23G01G22G08G10G31G32G27G21
 129284995.116 6 100741579.085 6  24602110.250    24602119.742
        39.500          38.300    24602118.844    96544036.317 7  24602123.586
        42.100

 119929866.664 6  93452087.922 6  22821938.836    22821950.066
        39.200          40.400    22821949.633    89558227.466 7  22821948.617
        45.600

 123657099.785 7  96356192.97944  23531151.836    23531159.012
        42.100          28.200


 121652143.805 6  94793888.308 7  23149640.555    23149651.027
        40.800          43.600    23149651.469    90844136.393 7  23149650.234
        47.300

 115640506.936 8  90109519.410 7  22005647.789    22005657.875
        49.100          47.800    22005657.578    86354965.194 8  22005656.016
        51.600

 120142894.633 7  93617832.982 6  22862413.078    22862421.352
        42.200          40.800    22862421.352


 108493456.683 8  84540460.611 8  20645619.320    20645628.898
        53.800          51.300    20645628.461    81017966.314 9  20645627.672
        54.900

 126346764.344 6  98452042.205 6  24042996.406    24043009.133
        37.100          40.800    24043008.828    94349866.929 7  24043009.922
        45.400

 116554015.959 8  90821325.45646  22179482.445    22179489.844
        49.600          37.900


 21  7 19  1 39  0.0000000  0 10G23G03G01G22G08G10G31G32G27G21
 129364303.458 6 100803377.834 6  24617203.133    24617210.430
        40.200          36.900    24617211.895    96603260.061 6  24617215.191
        41.400

 132670625.42415 103379763.03716  25246386.227
        30.500          37.100    25246399.645    99072289.32116  25246399.621
        40.500

 119835153.297 6  93378285.361 6  22803913.938    22803926.586
        39.700          39.400    22803925.336    89487500.003 7  22803924.863
        45.300

 123583979.343 7  96299216.05544  23517237.695    23517244.684
        42.600          28.700


 121716461.312 6  94844005.805 7  23161879.906    23161890.848
        40.800          44.300    23161891.445    90892165.623 7  23161889.113
        47.500

 115691608.425 8  90149338.733 8  22015372.508    22015382.344
        49.700          48.100    22015381.637    86393125.364 8  22015380.121
        51.200

 120040216.512 7  93537824.165 6  22842874.531    22842881.496
        43.800          40.200    22842881.277


 108530848.993 8  84569597.472 8  20652734.555    20652744.375
        53.100          51.300    20652744.211    81045889.139 9  20652743.152
        55.000

 126442269.389 6  98526461.618 6  24061170.820    24061184.699
        37.100          41.500    24061183.844    94421185.519 7  24061182.500
        44.700

 116495043.795 8  90775373.12246  22168260.813    22168267.875
        48.800          38.300


 21  7 19  1 39 30.0000000  0 10G23G03G01G22G08G10G31G32G27G21
 129443683.448 6 100865232.292 5  24632307.867    24632316.363
        39.400          35.700    24632315.863    96662537.243 7  24632321.598
        42.500

 132587177.62415 103314738.830 6  25230505.820
        32.200          36.900    25230518.609    99009974.522 6  25230520.543
        40.500

 119740676.209 6  93304666.896 6  22785936.641    22785947.906
        39.400          39.500    22785948.066    89416948.959 7  22785946.066
        45.100

 123510913.275 7  96242281.50545  23503334.188    23503340.559
        43.400          30.000


 121781110.225 6  94894381.561 7  23174180.125    23174193.305
        40.700          43.400    23174192.832    90940442.368 7  23174191.699
        47.500

 115742889.798 8  90189298.207 7  22025130.633    22025140.828
        48.700          47.800    22025140.398    86431419.852 8  22025138.582
        51.400

 119937736.960 7  93457970.035 6  22823372.688    22823381.098
        43.600          41.400    22823381.152


 108568608.841 8  84599020.707 8  20659919.969    20659929.852
        53.400          51.600    20659929.820    81074086.408 9  20659928.891
        55.000

 126537834.085 6  98600927.528 6  24079355.906    24079370.031
        36.700          41.600    24079369.305    94492548.671 7  24079368.512
        44.300

 116436377.763 8  90729659.32646  22157097.313    22157104.164
        48.400          37.900


 21  7 19  1 40  0.0000000  0 10G23G03G01G22G08G10G31G32G27G21
 129523135.468 6 100927142.873 5  24647427.031    24647435.637
        40.500          35.800    24647435.074    96721868.263 6  24647439.617
        41.400

 132503718.94815 103249707.043 6  25214629.297    25214639.473
        32.800          36.400    25214638.758    98947652.436 6  25214637.844
        39.900

 119646438.602 6  93231235.024 6  22768002.859    22768014.891
        39.000          39.600    22768014.594    89346576.784 7  22768013.105
        45.400

 123437902.774 7  96185390.26544  23489440.391    23489447.105
        43.400          29.300


 121846088.828 6  94945014.188 7  23186544.914    23186557.734
        40.200          43.000    23186558.316    90988965.298 7  23186556.906
        47.300

 115794351.719 8  90229398.375 8  22034923.391    22034933.789
        48.400          48.000    22034933.016    86469849.176 8  22034931.805
        51.400

 119835459.896 7  93378273.711 6  22803911.492    22803918.215
        43.600          41.600    22803918.020


 108606735.040 9  84628729.433 8  20667175.547    20667185.164
        54.100          52.100    20667185.191    81102557.263 9  20667184.051
        54.800

 126633456.004 6  98675438.010 6  24097553.164    24097565.930
        36.700          41.100    24097565.105    94563954.507 7  24097566.379
        46.200

 116378020.127 8  90684185.83946  22145991.758    22145999.309
        48.000          37.300


 21  7 19  1 40 30.0000000  0 10G23G03G01G22G08G10G31G32G27G21
 129602659.174 6 100989109.335 5  24662559.125    24662569.051
        39.800          35.900    24662569.195    96781252.803 6  24662572.934
        41.600

 132420251.43615 103184667.559 6  25198741.711    25198754.520
        31.300          37.600    25198755.008    98885322.882 6  25198755.477
        41.500

 119552442.761 6  93157991.530 6  22750116.641    22750127.500
        39.200          40.100    22750127.516    89276385.139 7  22750126.172
        45.800

 123364948.040 7  96128542.47244  23475558.047    23475564.316
        44.300          29.100


 121911393.775 6  94995901.119 7  23198973.813    23198985.375
        40.600          44.000    23198985.973    91037731.928 8  23198984.754
        48.000

 115845993.951 8  90269639.084 7  22044750.813    22044760.742
        49.000          47.200    22044759.965    86508413.157 8  22044758.676
        50.900

 119733388.334 7  93298737.509 7  22784485.898    22784496.012
        42.600          43.000    22784496.180


 108645225.512 8  84658721.996 8  20674499.883    20674509.598
        53.500          52.100    20674509.246    81131300.136 9  20674508.520
        54.900

 126729131.803 6  98749990.497 7  24115759.922    24115772.949
        37.700          42.300    24115773.078    94635400.593 7  24115772.105
        44.300

 116319972.649 8  90638954.04146  22134946.070    22134953.020
        48.000          37.600


 21  7 19  1 41  0.0000000  0 10G23G03G01G22G08G10G31G32G27G21
 129682254.818 6 101051131.902 6  24677706.867    24677716.066
        40.100          37.400    24677715.145    96840690.996 7  24677719.484
        42.900

 132336774.51514 103119620.676 6  25182852.273    25182869.902
        27.300          37.000    25182870.184    98822986.328 6  25182870.063
        41.800

 119458691.563 6  93084938.704 6  22732275.703    22732286.723
        39.600          39.000    22732285.523    89206376.177 7  22732286.125
        45.600

 123292049.505 7  96071738.46645  23461686.391    23461692.492
        44.300          30.400


 121977022.398 6  95047040.272 7  23211462.875    23211474.203
        41.800          44.600    23211474.559    91086740.278 8  23211474.063
        48.000

 115897816.914 8  90310020.575 7  22054611.828    22054622.609
        48.500          47.500    22054621.754    86547112.120 8  22054620.918
        51.600

 119631525.559 7  93219363.962 7  22765101.992    22765111.113
        42.900          42.700    22765111.398


 108684078.714 9  84688997.217 8  20681893.875    20681903.121
        54.100          51.900    20681902.855    81160313.890 9  20681901.832
        54.800

 126824858.699 6  98824582.802 6  24133974.828    24133988.613
        37.900          41.700    24133988.332    94706884.928 7  24133988.863
        45.100

 116262237.562 8  90593965.66846  22123959.266    22123966.711
        48.800          38.100


 21  7 19  1 41 30.0000000  0 10G23G03G01G22G08G10G31G32G27G21
 129761921.739 6 101113209.921 6  24692865.859    24692876.559
        36.600          38.700    24692876.660    96900182.453 7  24692880.582
        44.000

 132253287.57014 103054566.036 6  25166969.656
        28.000          37.100    25166982.371    98760642.311 6  25166982.906
        41.300

 119365187.148 6  93012078.149 6  22714482.805    22714494.148
        39.900          39.800    22714493.254    89136551.482 7  22714492.836
        45.600

 123219207.292 7  96014978.35344  23447823.766    23447830.875
        44.100          29.600


 122042971.039 6  95098428.747 7  23224010.977    23224023.977
        40.700          43.900    23224024.023    91135987.557 7  23224022.855
        47.200

 115949820.232 8  90350542.601 7  22064508.492    22064518.500
        49.100          47.000    22064517.738    86585945.725 8  22064517.348
        51.700

 119529874.624 7  93140155.487 7  22745759.563    22745767.668
        44.100          42.300    22745767.875


 108723292.392 9  84719553.325 8  20689355.688    20689365.152
        54.200          51.600    20689365.297    81189596.828 9  20689363.836
        54.600

 126920633.237 6  98899212.207 6  24152201.023    24152213.402
        37.700          39.900    24152212.871    94778404.742 7  24152214.375
        45.800

 116204816.244 8  90549221.79146  22113032.180    22113039.504
        48.800          38.300


 21  7 19  1 42  0.0000000  0 10G23G03G01G22G08G10G31G32G27G21
 129841659.819 6 101175343.484 6  24708041.391    24708049.504
        37.400          37.700    24708050.285    96959727.051 7  24708054.594
        43.700

 132169790.87814 102989503.742 6  25151079.688
        29.900          36.300    25151093.844    98698290.991 6  25151094.082
        39.900

 119271932.094 6  92939411.917 6  22696736.492    22696748.230
        40.300          40.500    22696747.207    89066913.012 7  22696746.941
        45.600

 123146421.894 6  95958262.49644  23433972.500    23433979.941
        41.300          28.200


 122109237.257 6  95150064.715 7  23236622.875    23236633.918
        41.600          44.200    23236633.996    91185472.010 7  23236632.207
        46.800

 116002004.033 8  90391205.263 7  22074439.102    22074448.844
        48.500          47.600    22074448.055    86624914.099 8  22074447.223
        51.500

 119428438.826 7  93061114.694 7  22726456.391    22726464.531
        44.800          42.400    22726464.750


 108762864.736 9  84750388.910 8  20696886.117    20696895.430
        54.600          51.400    20696895.113    81219147.592 9  20696894.141
        54.500

 127016452.345 6  98973876.427 6  24170434.773    24170446.945
        37.700          41.200    24170447.418    94849957.894 7  24170447.785
        45.200

 116147710.566 8  90504723.86746  22102166.117    22102172.625
        48.600          38.000


 21  7 19  1 42 30.0000000  0 10G23G03G01G22G08G10G31G32G27G21
 129921469.465 5 101237532.745 6  24723226.938    24723237.688
        35.700          37.900    24723236.879    97019325.103 7  24723241.633
        43.100

 132086284.94914 102924434.312 6  25135187.063
        26.800          36.900    25135203.527    98635932.820 6  25135202.500
        39.800

 119178929.450 7  92866942.368 6  22679039.602    22679049.992
        42.100          40.600    22679048.723    88997463.022 7  22679049.625
        46.000

 123073694.069 7  95901591.53544  23420133.648    23420139.938
        42.500          28.300


 122175818.766 6  95201946.360 7  23249293.273    23249303.598
        41.800          44.000    23249303.809    91235191.931 7  23249302.680
        47.300

 116054368.737 8  90432008.909 8  22084403.016    22084413.496
        48.900          48.200    22084413.254    86664017.591 8  22084411.070
        50.500

 119327221.799 7  92982244.328 7  22707195.227    22707203.719
        43.700          42.100    22707203.305


 108802794.362 8  84781502.891 8  20704483.930    20704493.660
        53.500          52.000    20704493.512    81248965.161 9  20704492.582
        54.700

 127112313.515 5  99048573.321 7  24188673.164    24188689.578
        33.500          42.400    24188689.320    94921542.436 7  24188687.691
        43.200

 116090922.664 8  90460473.56446  22091359.766    22091366.145
        48.500          38.300


 21  7 19  1 43  0.0000000  0 10G23G03G01G22G08G10G31G32G27G21
 130001350.595 5 101299777.694 6  24738428.195    24738438.043
        34.800          37.200    24738437.488    97078976.508 7  24738442.398
        42.300

 132002769.922 4 102859357.750 5  25119299.547
        29.600          35.500    25119308.723    98573567.793 6  25119308.781
        38.200

 119086181.859 6  92794671.550 6  22661390.180    22661401.500
        41.700          41.400    22661400.250    88928203.507 7  22661400.250
        46.700

 123001024.341 7  95844965.81844  23406306.938    23406311.238
        43.400          28.600


 122242712.232 6  95254071.085 7  23262021.453    23262032.707
        41.100          43.600    23262033.789    91285144.763 7  23262033.184
        47.100

 116106914.527 8  90472953.658 7  22094402.195    22094412.723
        48.800          47.100    22094411.918    86703256.312 8  22094410.328
        50.500

 119226226.810 7  92903547.015 7  22687976.719    22687984.410
        44.600          42.000    22687984.301


 108843079.424 9  84812893.846 8  20712150.625    20712159.762
        54.500          51.700    20712159.629    81279048.153 9  20712158.531
        54.600

 127208213.673 6  99123300.624 6  24206927.953    24206937.551
        39.100          39.000    24206936.941    94993156.121 7  24206937.457
        44.100

 116034454.350 8  90416472.29146  22080613.820    22080620.609
        49.100          38.300


 21  7 19  1 43 30.0000000  0 10G23G03G01G22G08G10G31G32G27G21
 130081303.166 5 101362078.359 6  24753641.672    24753652.184
        33.700          38.600    24753653.105    97138681.303 6  24753656.590
        40.900

 131919245.995 5 102794274.332 6  25103403.547    25103415.008
        32.200          36.400    25103414.777    98511196.207 6  25103415.980
        39.900

 118993692.008 6  92722601.573 7  22643789.734    22643801.172
        41.400          42.700    22643800.508    88859136.467 7  22643800.070
        47.000

 122928413.066 7  95788385.64744  23392488.180    23392494.102
        42.100          28.500


 122309915.223 6  95306437.006 7  23274808.797    23274820.938
        40.500          43.300    23274820.664    91335328.758 7  23274821.047
        47.000

 116159641.615 8  90514039.667 7  22104436.398    22104446.164
        48.300          47.100    22104445.516    86742630.384 8  22104444.465
        50.900

 119125457.156 7  92825025.255 7  22668800.242    22668809.012
        43.500          42.000    22668808.535


 108883718.241 9  84844560.446 8  20719883.953    20719892.996
        54.100          51.600    20719892.801    81309395.322 9  20719891.930
        54.500

 127304149.910 6  99198056.102 6  24225181.102    24225194.895
        36.400          41.600    24225195.121    95064796.680 7  24225195.090
        45.300

 115978307.513 8  90372721.51546  22069929.609    22069935.934
        50.200          38.700


 21  7 19  1 44  0.0000000  0 10G23G03G01G22G08G10G31G32G27G21
 130161326.343 5 101424433.986 6  24768870.922    24768880.434
        34.600          37.000    24768880.129    97198438.777 6  24768884.316
        41.300

 131835712.65015 102729183.474 6  25087506.547    25087519.324
        34.000          37.100    25087519.477    98448817.462 6  25087521.207
        41.100

 118901461.712 6  92650733.851 7  22626239.438    22626249.848
        41.800          42.100    22626249.602    88790263.237 7  22626249.125
        47.400

 122855859.935 7  95731850.79944  23378681.742    23378687.137
        42.500          29.500


 122377423.707 7  95359040.963 7  23287657.227    23287668.246
        42.600          43.900    23287668.535    91385740.893 7  23287667.863
        47.200

 116212549.275 8  90555266.395 7  22114503.938    22114513.883
        48.400          46.800    22114512.777    86782139.310 8  22114512.523
        50.900

 119024915.345 7  92746681.035 7  22649667.711    22649676.828
        44.100          42.900    22649676.418


 108924708.181 9  84876500.654 8  20727684.016    20727693.156
        54.200          51.500    20727692.891    81340004.690 9  20727692.219
        54.600

 127400118.536 6  99272836.664 7  24243444.914    24243458.723
        38.100          42.100    24243457.934    95136461.399 7  24243457.035
        44.100

 115922483.533 8  90329222.30646  22059305.742    22059313.098
        50.000          38.500


 21  7 19  1 44 30.0000000  0 10G23G03G01G22G08G10G31G32G27G21
 130241420.222 5 101486844.715 6  24784112.164    24784121.727
        35.400          38.000    24784122.754    97258249.065 6  24784125.027
        39.000

 131752170.197 5 102664085.540 5  25071610.508    25071621.578
        34.600          35.700    25071621.375    98386431.963 6  25071623.250
        40.400

 118809493.885 7  92579070.624 7  22608738.344    22608749.133
        42.600          42.400    22608748.793    88721586.015 7  22608748.047
        47.800

 122783365.737 7  95675361.86745  23364887.875    23364892.395
        43.800          30.200


 122445235.181 6  95411881.027 7  23300560.344    23300572.129
        41.100          43.300    23300572.121    91436379.271 7  23300571.656
        46.400

 116265637.873 8  90596634.105 7  22124606.563    22124616.648
        48.000          47.600    22124616.215    86821783.368 8  22124614.824
        50.400

 118924604.963 7  92668517.151 7  22630580.328    22630588.938
        45.600          43.600    22630588.223


 108966047.692 8  84908713.247 8  20735550.461    20735559.871
        53.900          51.500    20735559.836    81370875.083 9  20735558.875
        54.500

 127496116.598 6  99347640.273 6  24261714.711    24261724.762
        39.500          39.600    24261725.102    95208148.249 7  24261725.164
        43.800

 115866984.083 8  90285975.99546  22048745.977    22048752.359
        50.000          39.400


 21  7 19  1 45  0.0000000  0 10G23G03G01G22G08G10G31G32G27G21
 130321585.320 5 101549310.962 5  24799366.578    24799376.758
        32.600          35.300    24799376.242    97318112.611 6  24799380.648
        39.700

 131668619.459 5 102598981.140 5  25055710.094    25055722.594
        35.100          33.300    25055721.129    98324040.245 6  25055722.309
        38.700

 118717791.792 7  92507614.474 7  22591287.203    22591299.246
        42.000          42.400    22591298.652    88653107.204 7  22591297.309
        47.600

 122710931.411 7  95618919.59345  23351102.711    23351108.250
        44.100          30.200


 122513347.659 7  95464955.653 7  23313523.063    23313534.426
        42.400          44.100    23313534.754    91487242.429 7  23313532.535
        46.200

 116318908.136 7  90638143.383 7  22134743.102    22134753.633
        46.100          47.400    22134753.383    86861563.096 8  22134751.617
        49.900

 118824529.799 7  92590536.599 7  22611535.359    22611544.754
        43.600          42.700    22611544.559


 109007735.548 8  84941197.287 8  20743483.234    20743493.066
        52.200          51.800    20743492.836    81402005.625 9  20743491.801
        54.500

 127592141.972 6  99422465.206 6  24279985.234    24279997.879
        37.400          40.600    24279999.684    95279855.340 7  24279999.895
        46.500

 115811811.878 8  90242984.67446  22038246.258    22038253.484
        48.600          39.400


 21  7 19  1 45 30.0000000  0 10G23G03G01G22G08G10G31G32G27G21
 130401821.463 5 101611832.644 5  24814635.133    24814644.313
        35.200          33.600    24814644.293    97378029.082 6  24814650.512
        41.800

 131585060.462 6 102533870.240 5  25039812.078    25039821.055
        36.000          33.200    25039820.785    98261642.357 6  25039822.020
        38.900

 118626357.797 7  92436367.243 7  22573888.359    22573899.852
        42.600          42.900    22573899.273    88584828.594 7  22573897.949
        47.600

 122638557.325 7  95562524.24745  23337330.672    23337336.574
        44.500          30.600


 122581757.337 7  95518261.834 7  23326540.953    23326552.035
        42.200          44.300    23326551.750    91538327.524 7  23326550.594
        45.900

 116372360.005 8  90679794.158 7  22144915.266    22144925.289
        48.100          47.000    22144924.641    86901478.429 8  22144923.320
        50.200

 118724693.120 7  92512741.806 7  22592539.070    22592546.824
        45.200          43.800    22592547.297


 109049769.736 8  84973951.192 8  20751482.367    20751491.832
        53.100          51.300    20751491.637    81433394.774 9  20751490.684
        54.500

 127688191.255 6  99497308.683 7  24298264.047    24298277.887
        40.600          42.800    24298277.918    95351580.350 7  24298275.297
        44.100

 115756968.705 8  90200249.73446  22027809.938    22027817.137
        50.000          39.400


 21  7 19  1 46  0.0000000  0 10G23G03G01G22G08G10G31G32G27G21
 130482128.454 5 101674409.437 5  24829920.070    24829927.148
        35.700          33.900    24829926.934    97437998.582 6  24829931.109
        40.700

 131501493.335 5 102468753.074 5  25023905.984    25023918.367
        33.900          32.600    25023917.637    98199238.467 6  25023920.773
        39.600

 118535194.662 7  92365331.068 7  22556541.633    22556551.973
        42.600          43.000    22556550.758    88516752.253 8  22556550.145
        48.100

 122566243.884 7  95506176.16545  23323569.492    23323575.699
        43.800          31.200


 122650461.660 7  95571797.610 7  23339614.352    23339626.297
        42.000          44.000    23339626.809    91589632.625 7  23339624.172
        45.500

 116425993.652 8  90721586.575 7  22155121.930    22155131.637
        48.800          47.500    22155131.250    86941529.495 8  22155129.758
        50.500

 118625098.384 7  92435135.587 7  22573584.891    22573593.867
        44.500          43.000    22573593.629


 109092148.507 9  85006973.600 8  20759546.820    20759556.309
        55.100          52.100    20759556.309    81465041.244 9  20759555.117
        54.600

 127784261.689 6  99572168.626 6  24316547.063    24316557.375
        39.800          38.600    24316557.527    95423321.196 7  24316557.840
        45.000

 115702456.361 8  90157772.58146  22017436.891    22017443.859
        50.500          39.600


 21  7 19  1 46 30.0000000  0 10G23G03G01G22G08G10G31G32G27G21
 130562506.753 5 101737041.789 5  24845213.039    24845223.395
        32.500          34.000    24845221.711    97498021.195 6  24845226.527
        40.000

 131417919.11815 102403630.099 5  25008002.461
        32.000          33.900    25008014.813    98136828.927 6  25008015.645
        38.600

 118444305.317 6  92294508.193 7  22539244.758    22539256.066
        41.700          43.100    22539255.277    88448880.347 7  22539254.246
        47.800

 122493992.235 7  95449876.22145  23309821.742    23309826.195
        44.900          31.200


 122719458.099 6  95625561.011 7  23352743.594    23352755.363
        41.300          43.400    23352755.703    91641155.895 7  23352754.730
        46.300

 116479809.469 7  90763520.954 7  22165361.969    22165372.273
        47.500          46.500    22165371.590    86981716.591 8  22165370.180
        50.300

 118525748.803 7  92357720.397 7  22554679.344    22554688.434
        44.500          43.200    22554688.156


 109134870.335 9  85040263.321 8  20767676.914    20767686.145
        54.500          52.000    20767686.031    81496943.888 9  20767684.703
        54.400

 127880350.546 6  99647043.052 6  24334832.898    24334842.289
        41.400          39.900    24334842.559    95495075.742 7  24334843.934
        46.500

 115648276.832 8  90115554.76246  22007126.711    22007133.734
        50.200          39.400


 21  7 19  1 47  0.0000000  0 10G23G03G01G22G08G10G31G32G27G21
 130642956.571 5 101799729.938 5  24860521.586    24860531.969
        32.300          33.400    24860531.051    97558097.311 6  24860536.930
        40.600

 131334337.15215 102338501.719 5  24992096.727
        33.800          35.000    24992109.313    98074414.276 6  24992112.027
        37.900

 118353693.042 7  92223901.253 7  22522001.742    22522013.422
        42.000          43.200    22522012.418    88381215.370 8  22522011.480
        48.000

 122421803.151 7  95393625.04645  23296083.836    23296089.180
        45.000          31.200


 122788744.219 6  95679550.146 7  23365928.258    23365940.063
        41.500          43.300    23365940.473    91692895.475 7  23365939.637
        46.500

 116533808.198 7  90805597.885 7  22175637.234    22175647.816
        47.000          46.300    22175647.324    87022040.300 8  22175645.605
        49.600

 118426648.486 7  92280499.379 7  22535821.133    22535830.164
        45.000          43.200    22535829.586


 109177934.014 9  85073819.412 8  20775871.453    20775881.039
        54.600          52.300    20775881.156    81529101.821 9  20775879.434
        54.300

 127976455.475 6  99721929.908 6  24353118.008    24353132.449
        38.900          41.400    24353131.785    95566842.298 7  24353131.137
        45.800

 115594432.753 8  90073598.33846  21996880.359    21996887.668
        50.100          39.400


 21  7 19  1 47 30.0000000  0 10G23G03G01G22G08G10G31G32G27G21
 130723476.98214 101862473.090 5  24875846.289
        28.300          34.900    24875854.961    97618226.099 6  24875858.227
        39.400

 131250748.41415 102273367.297 6  24976188.750
        32.900          36.000    24976203.820    98011993.821 5  24976203.219
        34.800

 118263359.439 6  92153511.486 7  22504811.398    22504823.879
        41.400          43.700    22504823.125    88313758.482 8  22504821.613
        48.400

 122349676.120 7  95337422.20945  23282358.391    23282363.398
        44.500          30.700


 122858315.933 7  95733761.797 7  23379168.102    23379180.074
        42.000          43.500    23379179.641    91744848.309 7  23379178.785
        46.600

 116587988.959 7  90847816.621 7  22185947.766    22185957.848
        47.500          46.100    22185957.445    87062499.918 8  22185955.746
        49.400

 118327799.555 7  92203474.304 7  22517011.273    22517020.168
        44.500          43.600    22517020.109


 109221336.644 9  85107639.641 8  20784130.031    20784140.227
        54.700          52.100    20784140.266    81561512.869 9  20784138.590
        54.200

 128072572.630 6  99796826.246 6  24371406.781    24371422.578
        38.300          41.400    24371422.023    95638617.936 7  24371420.703
        43.800

 115540924.912 8  90031903.91146  21986698.672    21986705.238
        49.300          39.800


 21  7 19  1 48  0.0000000  0 10G23G03G01G22G08G10G31G32G27G21
 130804068.23115 101925271.255 5  24891182.070
        31.600          35.300    24891190.945    97678407.699 6  24891194.176
        37.900

 131167151.31715 102208227.250 6  24960282.141
        34.400          36.100    24960296.734    97949567.93215  24960293.496
        32.000

 118173307.260 7  92083340.987 7  22487675.305    22487686.965
        42.000          43.700    22487686.738    88246511.769 8  22487685.660
        48.600

 122277611.855 7  95281268.27345  23268645.195    23268649.961
        44.000          30.800


 122928171.188 6  95788194.437 7  23392460.945    23392472.422
        41.400          43.500    23392472.582    91797012.900 7  23392471.957
        46.400

 116642351.979 7  90890177.397 7  22196292.438    22196303.238
        46.600          46.400    22196302.535    87103095.662 8  22196300.813
        49.900

 118229205.536 7  92126647.861 7  22498250.055    22498257.777
        44.900          43.500    22498258.328


 109265076.614 9  85141722.712 8  20792454.195    20792463.469
        54.300          52.200    20792463.484    81594175.816 9  20792462.137
        54.400

 128168699.061 6  99871729.905 6  24389699.805    24389714.273
        38.700          41.000    24389714.094    95710400.599 7  24389715.637
        45.600

 115487755.138 8  89990472.91846  21976580.609    21976587.250
        49.600          39.200


 21  7 19  1 48 30.0000000  0 10G23G03G01G22G08G10G31G32G27G21
 130884729.490 5 101988124.232 5  24906531.289
        33.500          32.700    24906537.566    97738641.778 6  24906543.566
        37.700

 131083547.367 6 102143081.332 6  24944374.602    24944385.785
        36.500          37.000    24944386.867    97887136.501 5  24944386.504
        31.900

 118083538.987 6  92013391.713 7  22470592.102    22470604.613
        41.300          43.800    22470605.113    88179477.052 8  22470603.305
        48.800

 122205610.696 7  95225163.52145  23254942.820    23254949.211
        42.700          30.700


 122998305.538 6  95842844.509 7  23405806.945    23405818.445
        40.900          43.400    23405818.418    91849385.894 7  23405817.840
        46.500

 116696897.032 7  90932679.997 7  22206672.469    22206682.465
        46.800          46.500    22206681.719    87143827.327 8  22206680.957
        50.000

 118130869.425 7  92050022.362 7  22479538.094    22479545.059
        46.400          43.900    22479545.309


 109309151.701 9  85176066.928 8  20800840.953    20800850.754
        54.900          51.900    20800850.418    81627089.009 9  20800849.320
        54.400

 128264831.573 6  99946638.239 7  24407995.141    24408009.422
        39.700          43.900    24408009.328    95782187.711 7  24408008.488
        45.300

 115434924.919 8  89949306.52146  21966527.070    21966533.910
        49.900          39.400


 21  7 19  1 49  0.0000000  0 10G23G03G01G22G08G10G31G32G27G21
 130965460.93415 102051031.739 5  24921893.453
        33.400          35.500    24921903.523    97798928.063 6  24921906.984
        38.400

 130999936.068 6 102077929.825 6  24928464.086    24928476.176
        36.700          38.300    24928475.605    97824699.636 5  24928475.273
        34.700

 117994057.094 6  91943665.553 7  22453565.242    22453576.859
        41.200          43.400    22453576.898    88112656.191 8  22453574.844
        48.600

 122133673.097 6  95169108.27744  23241253.078    23241259.453
        41.600          29.200


 123068717.063 6  95897710.605 7  23419206.008    23419217.078
        41.200          42.700    23419216.887    91901965.861 7  23419216.602
        46.000

 116751624.209 7  90975324.517 7  22217087.172    22217097.164
        47.000          46.300    22217096.094    87184694.978 8  22217095.457
        50.000

 118032794.290 7  91973600.230 7  22460874.180    22460882.035
        44.900          43.900    22460882.176


 109353560.006 9  85210670.804 8  20809291.375    20809301.133
        54.700          51.500    20809301.160    81660251.047 9  20809299.855
        54.100

 128360967.018 6 100021548.908 6  24426290.484    24426302.664
        40.100          41.700    24426302.578    95853977.071 7  24426301.484
        44.100

 115382435.944 8  89908406.02546  21956538.891    21956545.695
        50.700          39.200


 21  7 19  1 49 30.0000000  0 10G23G03G01G22G08G10G31G32G27G21
 131046262.755 5 102113994.141 5  24937269.078
        34.000          34.900    24937278.762    97859267.010 6  24937284.023
        40.300

 130916318.224 6 102012773.165 6  24912551.844    24912563.840
        37.300          38.200    24912564.441    97762257.864 6  24912563.090
        37.500

 117904864.836 6  91874165.117 7  22436593.047    22436604.125
        40.800          43.600    22436603.906    88046051.598 8  22436602.227
        48.000

 122061799.967 6  95113103.29645  23227575.539    23227582.598
        40.900          30.200


 123139402.609 6  95952790.197 7  23432656.836    23432668.105
        40.400          43.400    23432669.109    91954750.465 7  23432668.008
        46.400

 116806534.191 7  91018111.475 7  22227535.945    22227545.801
        47.600          46.400    22227545.141    87225699.157 8  22227544.125
        50.000

 117934984.238 7  91897384.679 7  22442261.820    22442269.957
        46.000          44.300    22442269.453


 109398300.274 9  85245533.334 8  20817805.148    20817814.969
        54.700          51.400    20817814.840    81693660.975 8  20817813.699
        53.900

 128457103.277 6 100096460.160 7  24444583.883    24444596.262
        40.000          42.800    24444596.711    95925766.994 7  24444595.910
        44.400

 115330290.852 8  89867773.48146  21946616.023    21946622.656
        50.600          39.000


 21  7 19  1 50  0.0000000  0 10G23G03G01G22G08G10G31G32G27G21
 131127135.161 5 102177011.557 5  24952660.320    24952668.492
        35.200          34.700    24952667.543    97919658.668 6  24952674.309
        39.000

 130832694.066 5 101947611.588 6  24896638.711    24896650.438
        35.400          39.000    24896650.801    97699811.443 6  24896650.621
        40.200

 117815965.038 6  91804892.566 7  22419676.203    22419686.883
        41.100          42.900    22419686.141    87979665.408 8  22419685.309
        49.100

 121989991.893 6  95057148.96844  23213910.844    23213918.074
        40.900          28.100


 123210359.609 6  96008081.306 7  23446159.125    23446170.813
        40.200          43.600    23446171.496    92007737.753 7  23446170.199
        45.900

 116861627.219 7  91061041.092 7  22238019.922    22238029.785
        46.200          46.000    22238029.066    87266840.018 8  22238028.063
        50.300

 117837442.469 7  91821378.160 7  22423699.805    22423707.680
        45.400          44.100    22423707.809


 109443370.808 9  85280653.226 8  20826381.641    20826391.605
        54.700          51.300    20826391.570    81727317.531 9  20826390.371
        54.200

 128553237.428 6 100171369.793 7  24462877.328    24462890.695
        40.200          42.800    24462890.684    95997555.373 7  24462889.609
        45.100

 115278491.363 8  89827410.23846  21936758.367    21936765.703
        50.000          39.600


 21  7 19  1 50 30.0000000  0 10G23G03G01G22G08G10G31G32G27G21
 131208077.768 5 102240083.567 5  24968062.789    24968071.145
        35.100          35.600    24968071.516    97980102.734 6  24968076.816
        38.400

 130749063.643 5 101882445.107 5  24880724.156    24880736.078
        33.500          35.700    24880735.902    97637360.237 6  24880736.074
        41.600

 117727360.030 6  91735849.741 7  22402815.070    22402825.723
        40.900          43.100    22402825.496    87913499.382 8  22402824.563
        48.600

 121918249.174 6  95001245.57745  23200259.063    23200265.754
        41.500          30.100


 123281584.848 6  96063581.429 7  23459712.906    23459724.633
        41.000          42.300    23459725.480    92060925.372 7  23459724.035
        46.000

 116916903.121 7  91104113.219 7  22248538.953    22248548.695
        47.100          47.100    22248548.023    87308117.447 8  22248546.320
        50.000

 117740172.093 7  91745583.101 7  22405188.719    22405197.656
        44.700          44.100    22405197.410


 109488769.462 9  85316028.804 8  20835021.250    20835030.832
        54.100          51.400    20835030.793    81761219.118 9  20835029.496
        54.100

 128649366.316 6 100246275.288 6  24481170.422    24481182.441
        39.000          41.800    24481182.531    96069339.798 7  24481182.922
        44.500

 115227039.132 8  89787317.59646  21926968.078    21926974.684
        51.000          39.400


 21  7 19  1 51  0.0000000  0 10G23G03G01G22G08G10G31G32G27G21
 131289091.535 5 102303211.087 6  24983477.766    24983488.211
        34.900          36.000    24983486.758    98040599.930 5  24983490.047
        35.600

 130665428.256 5 101817274.798 5  24864808.000
        32.000          34.000    24864820.016    97574905.344 7  24864821.578
        42.400

 117639053.618 6  91667039.551 7  22386010.406    22386021.402
        40.800          43.100    22386020.324    87847556.318 8  22386019.961
        48.000

 121846573.611 7  94945394.51544  23186619.609    23186626.156
        42.500          29.500


 123353076.292 6  96119288.982 7  23473317.234    23473329.508
        40.800          42.400    23473328.293    92114311.758 7  23473328.438
        46.500

 116972363.151 7  91147328.763 7  22259092.875    22259102.113
        47.300          46.700    22259101.660    87349532.345 8  22259100.480
        50.300

 117643177.283 7  91670002.784 7  22386731.039    22386740.340
        45.000          44.100    22386739.766


 109534495.531 9  85351659.493 8  20843722.945    20843732.328
        54.100          52.100    20843732.121    81795365.192 9  20843730.832
        54.200

 128745488.057 6 100321175.270 6  24499462.563    24499473.797
        40.400          41.800    24499474.102    96141118.941 7  24499474.625
        45.000

 115175936.890 8  89747497.65746  21917243.570    21917250.410
        50.300          40.000


